Lat,Lon,LatWGS84,LonWGS84,LocationName,StationID,ObsTime,ELEV,WDIR,WDSD,Temp,HUMD,PRES,H24R,H_FX,H_XD,D_TX,D_TN,City,CitySn,Town,TownSn,InfoTime,InfoDate
24.63875,120.856583,24.63705556,120.8647778,造橋,C0E740,2021/12/12 13:00,27,43,2.2,20.3,0.83,1016.9,0,,,22.1,18.8,苗栗縣,11,造橋鄉,90,2021/12/12 13:00,2021/12/12
23.421475,120.380792,23.41971944,120.3888944,水上,C0M690,2021/12/12 1:00,33,7,1,17.7,0.95,1014.9,0,,,17.9,17.7,嘉義縣,17,水上鄉,223,2021/12/12 1:00,2021/12/12
24.407236,120.741644,24.40547778,120.7498194,三義,C0E880,2021/12/12 19:00,507,61,7,13.4,0.99,961.2,0,12.9,65,18.8,13.4,苗栗縣,11,三義鄉,106,2021/12/12 19:00,2021/12/12
24.754722,121.633056,24.75303333,121.6413028,雙連埤,C0U520,2021/12/12 17:00,517,0,0.1,15.9,0.99,964,0,,,21.8,15.2,宜蘭縣,7,員山鄉,74,2021/12/12 17:00,2021/12/12
23.216733,120.127656,23.21497222,120.1357611,將軍,C0X280,2021/12/12 13:00,22,19,5,23.8,0.68,1016.3,0,,,23.8,17.5,臺南市,4,將軍區,245,2021/12/12 13:00,2021/12/12
23.95175,120.471056,23.94835,120.4791222,溪湖,C0G660,2021/12/12 1:00,27,11,0.7,18.5,1,1015.6,0,,,18.6,18.5,彰化縣,14,溪湖鎮,157,2021/12/12 1:00,2021/12/12
23.812778,120.609028,23.81074167,120.6173,二水,C0G880,2021/12/12 0:00,92,0,0.2,18.4,1,1010.1,0,,,26.6,18.3,彰化縣,14,二水鄉,177,2021/12/12 0:00,2021/12/12
23.210556,121.254167,23.20871667,121.2623417,明里,C0Z020,2021/12/12 0:00,211,16,0.3,17.2,0.89,996.2,0,,,24.3,12,花蓮縣,21,富里鄉,241,2021/12/12 0:00,2021/12/12
25.076228,121.419053,25.07445278,121.4272806,五股,C0AI00,2021/12/12 8:00,188,14,1.5,18.2,0.96,1001.4,0,,,19.6,17.7,新北市,6,五股區,17,2021/12/12 8:00,2021/12/12
24.314833,120.816194,24.31276389,120.8247528,卓蘭,C0E790,2021/12/12 9:00,344,64,0.4,20.4,0.8,981.6,0,,,20.4,16.2,苗栗縣,11,卓蘭鎮,109,2021/12/12 9:00,2021/12/12
23.948694,120.517611,23.94763333,120.5254556,埔心,C0G810,2021/12/12 10:00,26,351,1.8,22.7,0.63,1017,0,,,22.7,17.5,彰化縣,14,埔心鄉,158,2021/12/12 10:00,2021/12/12
24.603167,120.992083,24.601775,121.0002139,南庄,C0E430,2021/12/12 4:00,258,192,1.1,14.5,0.91,994.3,0,,,16.1,14.5,苗栗縣,11,南庄鄉,92,2021/12/12 4:00,2021/12/12
23.631111,120.217222,23.63041389,120.227125,四湖,C0K280,2021/12/12 0:00,23,16,2.2,19.3,0.92,1019.5,0,,,25,16.1,雲林縣,16,四湖鄉,195,2021/12/12 0:00,2021/12/12
24.489931,118.400617,24.48829167,118.4087778,金沙,C0W140,2021/12/12 15:00,21,75,5.8,20.7,0.63,1019,0,11.3,55,21.8,14,金門縣,99,金沙鎮,999,2021/12/12 15:00,2021/12/12
22.828222,120.592722,22.82638889,120.6008056,高樹,C0R470,2021/12/12 2:00,103,320,0.8,18.5,0.85,1008,0,,,19.2,18.4,屏東縣,20,高樹鄉,290,2021/12/12 2:00,2021/12/12
22.759583,120.297694,22.75780556,120.30575,橋頭,C0V760,2021/12/12 8:00,30,27,1.1,18.5,1,1017.6,0,,,19.1,18.2,高雄市,5,橋頭區,299,2021/12/12 8:00,2021/12/12
22.143756,120.886331,22.14206944,120.8943556,九棚,C0R790,2021/12/12 19:00,111,29,9.9,22.3,0.85,1006.5,2.5,,,23.7,20.3,屏東縣,20,牡丹鄉,347,2021/12/12 19:00,2021/12/12
22.890389,120.475528,22.88861389,120.4835972,旗山,C0V740,2021/12/12 15:00,60,332,2.9,27,0.51,1010.5,0,,,27.5,15.8,高雄市,5,旗山區,283,2021/12/12 15:00,2021/12/12
23.879222,120.506528,23.87758611,120.5142222,北斗,C0G840,2021/12/12 4:00,32,0,0,17.1,0.87,1014.7,0,,,18.4,17.1,彰化縣,14,北斗鎮,171,2021/12/12 4:00,2021/12/12
23.081667,120.5825,23.08010556,120.5917583,甲仙,C0V250,2021/12/12 18:00,298,75,0.8,18.6,0.81,983.4,0,,,26.7,13.7,高雄市,5,甲仙區,251,2021/12/12 18:00,2021/12/12
23.224167,120.797778,23.22240278,120.8060889,復興,C0V210,2021/12/12 3:00,734,34,0.3,15.2,0.69,937.3,0,,,16.5,15.2,高雄市,5,桃源區,353,2021/12/12 3:00,2021/12/12
23.948333,120.577528,23.94650278,120.5855972,員林,C0G650,2021/12/12 12:00,34,353,1.4,26.6,0.46,1016,0,,,26.6,17.7,彰化縣,14,員林市,156,2021/12/12 12:00,2021/12/12
24.13355,121.287556,24.13176389,121.2957167,小奇萊,C0I530,2021/12/12 18:00,3014,51,2.7,1.8,1,703.6,0,,,8.1,1.6,南投縣,13,仁愛鄉,122,2021/12/12 18:00,2021/12/12
22.487694,120.494694,22.48591111,120.5027361,南州,C0R580,2021/12/12 10:00,10,334,2.4,23.6,0.75,1019.8,0,,,23.6,18,屏東縣,20,南州鄉,338,2021/12/12 10:00,2021/12/12
23.647817,120.4234,23.64606389,120.431525,大埤,C0K450,2021/12/12 18:00,35,13,5.9,19.2,0.79,1013.8,0,,,25.2,15.7,雲林縣,16,大埤鄉,199,2021/12/12 18:00,2021/12/12
22.536139,120.531972,22.53436111,120.54,潮州,C0R220,2021/12/12 4:00,23,27,0.7,20,0.87,1016.4,0,,,20.3,19.6,屏東縣,20,潮州鎮,332,2021/12/12 4:00,2021/12/12
23.370733,121.374825,23.36892778,121.3829306,赤柯山,C0Z290,2021/12/12 13:00,946,289,0.4,17.9,0.93,915.3,0.5,,,18.4,13.8,花蓮縣,21,玉里鎮,221,2021/12/12 13:00,2021/12/12
24.754722,121.633056,24.75303333,121.6413028,雙連埤,C0U520,2021/12/12 15:00,517,28,1.2,18,0.83,962.4,0,8.9,1,21.8,15.2,宜蘭縣,7,員山鄉,74,2021/12/12 15:00,2021/12/12
24.123139,121.265361,24.12132222,121.2736417,昆陽,C0H990,2021/12/12 0:00,3076,259,1.8,4.6,0.24,708.4,0,,,10.7,2.8,南投縣,13,仁愛鄉,122,2021/12/12 0:00,2021/12/12
24.390375,121.228197,24.38859444,121.2363389,雪山圈谷A,C0F0A0,2021/12/12 5:00,3587,214,1.5,0.3,0.12,,0,,,5.5,0,臺中市,2,和平區,104,2021/12/12 5:00,2021/12/12
22.536139,120.531972,22.53436111,120.54,潮州,C0R220,2021/12/12 10:00,23,324,1.3,24.6,0.64,1018,0,,,24.6,18.7,屏東縣,20,潮州鎮,332,2021/12/12 10:00,2021/12/12
24.58525,120.877222,24.58348611,120.8854111,明德,C0E550,2021/12/12 13:00,84,18,1.7,20.4,0.74,1014.1,0,,,21.9,16.3,苗栗縣,11,頭屋鄉,94,2021/12/12 13:00,2021/12/12
22.888889,120.236444,22.88713889,120.2445,湖內,C0V640,2021/12/12 9:00,35,32,2.9,20.3,0.96,1017.5,0,,,20.3,18.3,高雄市,5,湖內區,285,2021/12/12 9:00,2021/12/12
23.882433,121.573839,23.88062778,121.5819806,大坑,C0T9E0,2021/12/12 9:00,415,0,0,18.1,0.8,975.3,0,,,18.1,15.8,花蓮縣,21,壽豐鄉,161,2021/12/12 9:00,2021/12/12
24.489931,118.400617,24.48829167,118.4087778,金沙,C0W140,2021/12/12 8:00,21,20,1.1,17.5,0.75,1022,0,,,17.5,14,金門縣,99,金沙鎮,999,2021/12/12 8:00,2021/12/12
22.320422,120.849339,22.31861944,120.8573722,山豬窟,C0S990,2021/12/12 9:00,409,41,3.8,19.7,0.85,975.5,0.5,,,19.9,17.3,臺東縣,22,大武鄉,342,2021/12/12 9:00,2021/12/12
24.248194,120.824917,24.24642778,120.8330472,東勢,C0F850,2021/12/12 15:00,379,12,2,21.9,0.72,974.5,0,,,25,12.7,臺中市,2,東勢區,113,2021/12/12 15:00,2021/12/12
23.877003,120.566469,23.87524722,120.5746083,高鐵彰化,C0G760,2021/12/12 8:00,53,338,0.3,17.8,0.99,1016.5,0,,,17.8,15.2,彰化縣,14,田中鎮,170,2021/12/12 8:00,2021/12/12
24.669917,121.644819,24.66812222,121.6530167,三星,C0U890,2021/12/12 3:00,116,279,2.3,18.6,0.77,1008.2,0,,,18.6,18,宜蘭縣,7,三星鄉,84,2021/12/12 3:00,2021/12/12
23.224167,120.797778,23.22240278,120.8060889,復興,C0V210,2021/12/12 12:00,734,239,2.9,24.8,0.36,936.5,0,,,25.2,13.1,高雄市,5,桃源區,353,2021/12/12 12:00,2021/12/12
24.3704,121.365011,24.36861389,121.3731889,多加屯,C0UA20,2021/12/12 9:00,2619,38,1.1,4.6,0.39,741.8,0,,,5.8,2.9,宜蘭縣,7,大同鄉,81,2021/12/12 9:00,2021/12/12
24.762506,121.573147,24.76071667,121.58135,福山植物園,C0AH90,2021/12/12 17:00,660,201,0.4,15.3,0.92,950,0,,,21.3,14,新北市,6,烏來區,61,2021/12/12 17:00,2021/12/12
22.432667,120.502083,22.43083611,120.5099833,林邊,C0R530,2021/12/12 2:00,16,15,1,,0.84,1016.2,0,,,20.7,20.2,屏東縣,20,林邊鄉,340,2021/12/12 2:00,2021/12/12
24.850056,121.589639,24.84822222,121.5979917,桶後,C0A570,2021/12/12 19:00,360,0,0,15.1,0.98,982.7,0,,,19.4,14.7,新北市,6,烏來區,61,2021/12/12 19:00,2021/12/12
22.704053,121.074603,22.70224722,121.0826639,知本(水試所),C0SA60,2021/12/12 13:00,6,61,1.5,26.8,0.58,1018.3,0,6.6,89,26.9,18.7,臺東縣,22,臺東市,297,2021/12/12 13:00,2021/12/12
25.059108,121.4924,25.05737778,121.500625,三重,C0AI30,2021/12/12 13:00,26,313,2.1,19.4,0.93,1019.5,1.5,,,21.8,19.4,新北市,6,三重區,25,2021/12/12 13:00,2021/12/12
23.516064,120.221625,23.51431944,120.2297361,蔦松,C0K550,2021/12/12 6:00,15,12,1.1,17.8,0.96,1018.9,0,,,18.5,17.8,雲林縣,16,水林鄉,204,2021/12/12 6:00,2021/12/12
22.900556,120.511111,22.89874167,120.5191528,美濃,C0V310,2021/12/12 5:00,46,0,0,17.8,0.96,1013.2,0,,,18.9,17.6,高雄市,5,美濃區,282,2021/12/12 5:00,2021/12/12
23.401778,119.314667,23.40006944,119.3227611,花嶼,C0W130,2021/12/12 0:00,18,25,6,21.1,0.81,1016.8,0,11.6,29,22.5,20.6,澎湖縣,23,望安鄉,231,2021/12/12 0:00,2021/12/12
23.494611,120.2825,23.49286389,120.2906111,六腳,C0M740,2021/12/12 19:00,15,29,2.8,18.7,0.82,1017,0,,,25.7,16.6,嘉義縣,17,六腳鄉,214,2021/12/12 19:00,2021/12/12
23.602361,120.450281,23.60060556,120.4583972,大林,C0M670,2021/12/12 1:00,43,114,0.8,17.6,0.96,1014.1,0,,,17.9,17.6,嘉義縣,17,大林鎮,202,2021/12/12 1:00,2021/12/12
23.692672,120.295503,23.69092778,120.3036194,褒忠,C0K430,2021/12/12 2:00,30,353,1.6,18.2,0.95,1016.7,0,,,18.5,18.1,雲林縣,16,褒忠鄉,191,2021/12/12 2:00,2021/12/12
22.432667,120.502083,22.43083611,120.5099833,林邊,C0R530,2021/12/12 8:00,16,18,2.1,,0.85,1018.1,0,,,20.7,19.4,屏東縣,20,林邊鄉,340,2021/12/12 8:00,2021/12/12
24.894394,121.737519,24.8926,121.7457361,四堵,C0A540,2021/12/12 13:00,401,0,0,18.5,1,974.7,0,,,19.5,16.6,新北市,6,坪林區,53,2021/12/12 13:00,2021/12/12
24.174889,120.714139,24.17314167,120.7222889,大坑,C0F970,2021/12/12 1:00,145,100,0.9,17.4,0.87,1002,0,,,17.9,17.4,臺中市,2,北屯區,124,2021/12/12 1:00,2021/12/12
23.421475,120.380792,23.41971944,120.3888944,水上,C0M690,2021/12/12 15:00,33,359,4.8,24.8,0.63,1012.5,0,,,26.3,16.6,嘉義縣,17,水上鄉,223,2021/12/12 15:00,2021/12/12
24.85175,121.142611,24.84966389,121.1507889,打鐵坑,C0D480,2021/12/12 4:00,223,0,0,17.9,0.95,994.3,0,,,18,17.6,新竹縣,10,新埔鎮,63,2021/12/12 4:00,2021/12/12
23.494642,121.298764,23.49284167,121.3068833,瑞穗林道,C0Z250,2021/12/12 7:00,1124,0,0.2,11.9,1,897.3,0,,,12.1,11.4,花蓮縣,21,卓溪鄉,207,2021/12/12 7:00,2021/12/12
24.69,120.904167,24.68824722,120.9122056,頭份,C0E730,2021/12/12 11:00,26,50,1.6,21,0.78,1018,0,,,21,19.1,苗栗縣,11,頭份市,999,2021/12/12 11:00,2021/12/12
23.602361,120.450281,23.60060556,120.4583972,大林,C0M670,2021/12/12 0:00,43,10,1.1,17.9,0.96,1014.3,0,,,25.6,17,嘉義縣,17,大林鎮,202,2021/12/12 0:00,2021/12/12
21.995386,120.853619,21.99357778,120.8616333,佳樂水,C0R680,2021/12/12 11:00,13,61,2.6,25.2,0.68,1018.8,0,7.7,67,25.3,20.7,屏東縣,20,滿州鄉,348,2021/12/12 11:00,2021/12/12
22.956258,121.221844,22.95445278,121.2299222,七塊厝,C0S950,2021/12/12 12:00,415,67,2.7,20,0.88,972.3,0,,,21.7,16.4,臺東縣,22,東河鄉,264,2021/12/12 12:00,2021/12/12
26.360539,120.475308,26.35883611,120.4836306,東引,C0W170,2021/12/12 7:00,42,32,6.4,16.5,0.89,1018.5,0,12.3,46,16.8,16.2,連江縣,99,東引鄉,999,2021/12/12 7:00,2021/12/12
22.369511,120.582611,22.36772222,120.5906472,枋寮,C0R660,2021/12/12 2:00,20,4,0.9,19.9,0.9,1016.9,0,,,20.7,19.9,屏東縣,20,枋寮鄉,358,2021/12/12 2:00,2021/12/12
24.002167,120.423583,24.00039444,120.4316833,埔鹽,C0G800,2021/12/12 8:00,15,30,4,19.5,0.99,1019,0,,,19.5,18.3,彰化縣,14,埔鹽鄉,151,2021/12/12 8:00,2021/12/12
23.711022,121.411969,23.70921944,121.4201056,萬榮,C0Z200,2021/12/12 10:00,153,163,0.5,21.8,0.73,1006.9,0,,,22.3,16.4,花蓮縣,21,鳳林鎮,184,2021/12/12 10:00,2021/12/12
22.050931,121.504119,22.04909444,121.5121417,蘭嶼高中,C0S900,2021/12/12 3:00,27,111,0.4,23.8,0.75,1017.1,0,,,24,23.6,臺東縣,22,蘭嶼鄉,351,2021/12/12 3:00,2021/12/12
23.564311,119.460328,23.5626,119.4684361,西嶼,C0W120,2021/12/12 0:00,58,21,7.7,20.8,0.86,1013.6,0,13,18,21.3,20,澎湖縣,23,西嶼鄉,200,2021/12/12 0:00,2021/12/12
23.516064,120.221625,23.51431944,120.2297361,蔦松,C0K550,2021/12/12 13:00,15,353,2.8,24.6,0.66,1017.3,0,7.9,322,24.6,17.5,雲林縣,16,水林鄉,204,2021/12/12 13:00,2021/12/12
22.372167,120.62025,22.37036111,120.6283056,春日,C0R260,2021/12/12 10:00,76,328,0.7,24.2,0.7,1011.2,0,,,24.4,18.1,屏東縣,20,春日鄉,343,2021/12/12 10:00,2021/12/12
24.256306,120.712333,24.25432222,120.7206917,豐原,C0F9M0,2021/12/12 16:00,230,10,2.1,21.1,0.73,992,0,,,24.9,17.3,臺中市,2,豐原區,117,2021/12/12 16:00,2021/12/12
22.589372,120.985322,22.58756944,120.993375,香蘭,C0S960,2021/12/12 12:00,32,33,4.3,24.8,0.69,1016.1,0,,,25.3,20.2,臺東縣,22,太麻里鄉,312,2021/12/12 12:00,2021/12/12
24.149236,121.621542,24.14743333,121.6297028,富世,C0Z190,2021/12/12 5:00,62,308,3.2,20.2,0.66,1013.4,0,,,21.1,19.7,花蓮縣,21,秀林鄉,108,2021/12/12 5:00,2021/12/12
24.692389,121.009083,24.6905,121.0171889,峨眉,C0D430,2021/12/12 11:00,87,17,0.6,21.3,0.8,1011.1,0,,,21.4,15.7,新竹縣,10,峨眉鄉,83,2021/12/12 11:00,2021/12/12
23.534519,120.835553,23.53274167,120.8436667,神木村,C0H9A0,2021/12/12 3:00,1595,308,0.4,9.3,0.84,850,0,,,10.3,9.3,南投縣,13,信義鄉,175,2021/12/12 3:00,2021/12/12
24.451153,121.802036,24.44934722,121.8102194,南澳,C0U770,2021/12/12 10:00,5,0,0,24.4,0.68,1021.7,0,,,24.4,17.8,宜蘭縣,7,南澳鄉,93,2021/12/12 10:00,2021/12/12
24.186278,120.520833,24.18453611,120.5289722,龍井,C0F9R0,2021/12/12 13:00,20,28,5.2,22.5,0.72,1018.4,0,10.3,1,22.8,18.9,臺中市,2,龍井區,115,2021/12/12 13:00,2021/12/12
22.320422,120.849339,22.31861944,120.8573722,山豬窟,C0S990,2021/12/12 13:00,409,24,4,21.8,0.83,973.1,0.5,,,22.6,17.3,臺東縣,22,大武鄉,342,2021/12/12 13:00,2021/12/12
22.904381,121.075983,22.90258056,121.0840583,延平,C0S930,2021/12/12 11:00,248,235,0.9,22.9,0.63,993.1,0,,,22.9,16.7,臺東縣,22,延平鄉,280,2021/12/12 11:00,2021/12/12
22.487694,120.494694,22.48591111,120.5027361,南州,C0R580,2021/12/12 11:00,10,330,2.3,25.2,0.67,1019.3,0,,,25.2,18,屏東縣,20,南州鄉,338,2021/12/12 11:00,2021/12/12
25.030231,121.378336,25.02845833,121.3865611,龜山,C0C680,2021/12/12 14:00,228,3,4.4,16.6,0.94,992.9,2.5,10.5,353,19.2,16.5,桃園市,8,龜山區,34,2021/12/12 14:00,2021/12/12
24.719928,121.679461,24.71813333,121.6876639,內城,C0U900,2021/12/12 13:00,63,96,2.7,23,0.7,1014.5,0,,,23.4,18.8,宜蘭縣,7,員山鄉,74,2021/12/12 13:00,2021/12/12
22.421194,120.544222,22.41945556,120.552375,佳冬,C0R540,2021/12/12 3:00,17,349,1.4,19.5,0.91,1015.5,0,,,20.3,19.3,屏東縣,20,佳冬鄉,341,2021/12/12 3:00,2021/12/12
24.245,121.237667,24.24752222,121.2436694,梨山,C0F860,2021/12/12 10:00,2215,233,0.8,11.5,0.48,786.4,0,,,11.5,4,臺中市,2,和平區,104,2021/12/12 10:00,2021/12/12
24.111019,121.318297,24.10923056,121.3264556,奇萊稜線A,C0I540,2021/12/12 9:00,3344,8,2.2,4.6,0.24,,0,,,4.6,1.9,南投縣,13,仁愛鄉,122,2021/12/12 9:00,2021/12/12
22.456067,120.658178,22.454275,120.6662194,白鷺,C0R820,2021/12/12 14:00,588,210,0.4,24.9,0.63,951.7,0,,,27.8,16.7,屏東縣,20,來義鄉,331,2021/12/12 14:00,2021/12/12
23.692672,120.295503,23.69092778,120.3036194,褒忠,C0K430,2021/12/12 14:00,30,355,4.1,23.2,0.72,1015.5,0,10.1,332,24.3,17.7,雲林縣,16,褒忠鄉,191,2021/12/12 14:00,2021/12/12
23.255089,120.367158,23.25332778,120.3752528,柳營,C0X320,2021/12/12 6:00,30,51,1.4,17.5,1,1016.2,0,,,17.6,15.9,臺南市,4,柳營區,238,2021/12/12 6:00,2021/12/12
25.167694,121.62475,25.16591389,121.6329694,大坪,C0A860,2021/12/12 19:00,362,29,6,14.9,1,981.9,121,,,17.4,14.3,新北市,6,萬里區,5,2021/12/12 19:00,2021/12/12
22.206281,120.742964,22.20448056,120.7509889,丹路,C0R800,2021/12/12 3:00,131,112,3,21.4,0.8,1004.2,0,,,22.4,21.4,屏東縣,20,獅子鄉,344,2021/12/12 3:00,2021/12/12
22.454908,120.879528,22.45310833,120.8875722,土阪,C0SA80,2021/12/12 16:00,136,100,1.5,22.8,0.75,1002.9,0,,,25.4,17.3,臺東縣,22,達仁鄉,337,2021/12/12 16:00,2021/12/12
24.314833,120.816194,24.31276389,120.8247528,卓蘭,C0E790,2021/12/12 15:00,344,43,2,21.5,0.86,978.3,0,,,23.8,16.2,苗栗縣,11,卓蘭鎮,109,2021/12/12 15:00,2021/12/12
24.141081,120.435381,24.14335833,120.4435361,線西,C0G900,2021/12/12 14:00,20,17,5.4,21.6,0.84,1015.9,0,19.7,12,22.5,19.9,彰化縣,14,線西鄉,133,2021/12/12 14:00,2021/12/12
24.347444,120.579972,24.34506111,120.588025,大安,C0F9K0,2021/12/12 18:00,30,22,5.1,19.1,0.79,1015.1,0,11.3,30,21.8,18.8,臺中市,2,大安區,107,2021/12/12 18:00,2021/12/12
23.101389,121.375261,23.099575,121.3833583,水試所成功,CM0140,2021/12/12 15:00,26,102,1.5,24.8,0.59,1016.4,1.5,,,25.7,20,臺東縣,22,成功鎮,258,2021/12/12 15:00,2021/12/12
24.800111,121.165694,24.79822778,121.1739472,關西,C0D390,2021/12/12 19:00,146,0,0,17.2,0.85,1004.7,0,,,20.6,16.6,新竹縣,10,關西鎮,68,2021/12/12 19:00,2021/12/12
24.489931,118.400617,24.48829167,118.4087778,金沙,C0W140,2021/12/12 1:00,21,40,1.6,16.7,0.75,1020.5,0,,,17,16.7,金門縣,99,金沙鎮,999,2021/12/12 1:00,2021/12/12
23.764722,120.677778,23.761225,120.6881556,竹山,C0I110,2021/12/12 2:00,161,132,0.6,16.6,0.93,999.7,0,,,17.3,16.6,南投縣,13,竹山鎮,178,2021/12/12 2:00,2021/12/12
23.812778,120.609028,23.81074167,120.6173,二水,C0G880,2021/12/12 3:00,92,108,0.7,17.3,1,1009.2,0,,,18.3,17.3,彰化縣,14,二水鄉,177,2021/12/12 3:00,2021/12/12
24.154667,120.564,24.15295,120.5721167,大肚,C0F000,2021/12/12 7:00,273,54,1.7,16.7,0.99,985.6,0,,,17.8,16.7,臺中市,2,大肚區,127,2021/12/12 7:00,2021/12/12
22.191928,120.684131,22.19013056,120.6921556,楓港,C0R670,2021/12/12 5:00,26,43,3,23,0.68,1016.4,0,9.4,14,23.9,22,屏東縣,20,枋山鄉,346,2021/12/12 5:00,2021/12/12
22.170192,120.8332,22.16838889,120.841225,牡丹池山,C0R840,2021/12/12 11:00,536,47,4.8,20.8,0.82,959.5,0.5,,,21.1,16.6,屏東縣,20,牡丹鄉,347,2021/12/12 11:00,2021/12/12
25.073953,121.372611,25.07218056,121.3808389,林口,C0AH50,2021/12/12 3:00,275,360,3.3,17.8,0.96,988.6,0,,,18.1,17.5,新北市,6,林口區,16,2021/12/12 3:00,2021/12/12
23.216733,120.127656,23.21497222,120.1357611,將軍,C0X280,2021/12/12 4:00,22,50,2.3,18.3,0.97,1017.2,0,,,19,18.3,臺南市,4,將軍區,245,2021/12/12 4:00,2021/12/12
25.019167,121.934167,25.01784167,121.9420833,福隆,C0A880,2021/12/12 5:00,6,198,0.5,17.1,1,1017.8,0,,,17.3,16.7,新北市,6,貢寮區,27,2021/12/12 5:00,2021/12/12
24.415731,121.775067,24.413925,121.7832472,樟樹山,C0UA60,2021/12/12 9:00,566,60,1.1,21.6,0.75,957.4,0,,,21.6,15.7,宜蘭縣,7,南澳鄉,93,2021/12/12 9:00,2021/12/12
24.619833,120.94055,24.61806944,120.9485778,大河,C0E850,2021/12/12 9:00,104,19,1.8,19.6,0.81,1010.3,0,7.6,8,19.6,15.7,苗栗縣,11,三灣鄉,88,2021/12/12 9:00,2021/12/12
24.248194,120.824917,24.24642778,120.8330472,東勢,C0F850,2021/12/12 1:00,379,118,0.3,15.3,0.97,976.2,0,,,15.7,15.3,臺中市,2,東勢區,113,2021/12/12 1:00,2021/12/12
23.288611,121.403889,23.28681667,121.411975,長濱,C0S830,2021/12/12 0:00,288,155,1,19.7,0.89,989.6,0,,,25,18.8,臺東縣,22,長濱鄉,227,2021/12/12 0:00,2021/12/12
22.509583,120.386556,22.50774722,120.3945111,林園,C0V720,2021/12/12 15:00,15,293,2.6,26.2,0.61,1014.2,0,,,28.2,19.1,高雄市,5,林園區,335,2021/12/12 15:00,2021/12/12
24.187944,121.307833,24.18611667,121.3160861,大禹嶺,C0T790,2021/12/12 12:00,2830,200,0.4,11.2,0.58,730,0,,,11.5,2.1,花蓮縣,21,秀林鄉,108,2021/12/12 12:00,2021/12/12
24.592053,121.404039,24.59026944,121.4122278,鴛鴦湖,C0UA10,2021/12/12 16:00,1711,0,0,10.7,0.98,837.1,3.5,,,15.3,6.1,宜蘭縣,7,大同鄉,81,2021/12/12 16:00,2021/12/12
23.631111,120.217222,23.63041389,120.227125,四湖,C0K280,2021/12/12 13:00,23,23,4.9,24.6,0.63,1018.4,0,10.1,8,25,18,雲林縣,16,四湖鄉,195,2021/12/12 13:00,2021/12/12
23.071389,121.12,23.06913056,121.1262194,紅石,C0S760,2021/12/12 10:00,1621,,,14.9,0.86,845.7,0,,,14.9,9,臺東縣,22,海端鄉,240,2021/12/12 10:00,2021/12/12
22.900556,120.511111,22.89874167,120.5191528,美濃,C0V310,2021/12/12 10:00,46,213,1,23.3,0.65,1014.5,0,,,23.3,17.6,高雄市,5,美濃區,282,2021/12/12 10:00,2021/12/12
24.094389,120.692194,24.09246389,120.7013778,大里,C0F9N0,2021/12/12 10:00,75,337,0.3,23.3,0.52,1012.9,0,,,23.3,16.4,臺中市,2,大里區,141,2021/12/12 10:00,2021/12/12
24.51265,121.599858,24.51085556,121.6080444,翠峰湖,C0U960,2021/12/12 12:00,1885,206,1.2,14.2,0.78,819.4,0.5,,,14.2,6,宜蘭縣,7,大同鄉,81,2021/12/12 12:00,2021/12/12
23.750436,120.601508,23.748675,120.6096417,林內,C0K470,2021/12/12 15:00,97,335,3.3,25,0.63,1005.9,0,,,26.5,14.3,雲林縣,16,林內鄉,186,2021/12/12 15:00,2021/12/12
24.566667,120.816444,24.56456944,120.824575,苗栗,C0E750,2021/12/12 12:00,62,30,2.9,22,0.73,1013.8,0,,,22.7,18.1,苗栗縣,11,苗栗市,96,2021/12/12 12:00,2021/12/12
23.455769,120.741403,23.45399444,120.7495167,達邦,C0M820,2021/12/12 11:00,980,196,2.1,21.1,0.39,911.4,0,,,21.5,12.2,嘉義縣,17,阿里山鄉,208,2021/12/12 11:00,2021/12/12
23.101389,121.375261,23.099575,121.3833583,水試所成功,CM0140,2021/12/12 5:00,26,35,0.5,20.9,0.76,1018.3,0,,,22.2,20.9,臺東縣,22,成功鎮,258,2021/12/12 5:00,2021/12/12
25.086111,121.2575,25.084275,121.2657667,蘆竹,C0C620,2021/12/12 13:00,19,13,3.8,17.7,0.94,1018.9,0.5,9.8,15,20.2,17.7,桃園市,8,蘆竹區,20,2021/12/12 13:00,2021/12/12
24.149236,121.621542,24.14743333,121.6297028,富世,C0Z190,2021/12/12 19:00,62,101,3.8,20.8,0.99,1014,0,,,24.3,19.6,花蓮縣,21,秀林鄉,108,2021/12/12 19:00,2021/12/12
23.647817,120.4234,23.64606389,120.431525,大埤,C0K450,2021/12/12 14:00,35,358,4.7,24.8,0.58,1012.8,0,,,25.2,15.7,雲林縣,16,大埤鄉,199,2021/12/12 14:00,2021/12/12
22.686667,120.997583,22.68487222,121.0056444,知本,C0S700,2021/12/12 12:00,507,72,1,21.1,0.72,963.4,0,,,21.8,15.3,臺東縣,22,卑南鄉,289,2021/12/12 12:00,2021/12/12
22.646917,120.303278,22.64501667,120.3112333,三民,C0V700,2021/12/12 4:00,24,315,0.6,19.6,0.92,1015.8,0,,,20.5,19.6,高雄市,5,三民區,314,2021/12/12 4:00,2021/12/12
24.186278,120.520833,24.18453611,120.5289722,龍井,C0F9R0,2021/12/12 12:00,20,33,4.6,22.8,0.68,1019.5,0,,,22.8,18.9,臺中市,2,龍井區,115,2021/12/12 12:00,2021/12/12
24.041264,121.596386,24.03946111,121.6045389,新城,C0Z180,2021/12/12 14:00,34,34,2,23.1,0.78,1015.9,0,,,23.9,17.8,花蓮縣,21,新城鄉,136,2021/12/12 14:00,2021/12/12
24.345722,121.648142,24.34392222,121.6563167,和平林道,C0Z220,2021/12/12 9:00,589,257,1.9,15.9,0.79,955.8,0,,,16.1,14.1,花蓮縣,21,秀林鄉,108,2021/12/12 9:00,2021/12/12
24.692389,121.009083,24.6905,121.0171889,峨眉,C0D430,2021/12/12 18:00,87,34,0.9,17.9,0.83,1010.2,0,,,21.9,15.7,新竹縣,10,峨眉鄉,83,2021/12/12 18:00,2021/12/12
22.456067,120.658178,22.454275,120.6662194,白鷺,C0R820,2021/12/12 19:00,588,103,0.6,18.2,0.83,953.2,0,,,27.8,16.7,屏東縣,20,來義鄉,331,2021/12/12 19:00,2021/12/12
24.365503,121.436489,24.36371389,121.4446667,南湖圈谷A,C0F0E0,2021/12/12 19:00,3557,106,2.1,1.2,0.22,666.7,0,,,6.2,-1.4,臺中市,2,和平區,104,2021/12/12 19:00,2021/12/12
22.306856,120.634956,22.30506389,120.6429861,內獅,C0R810,2021/12/12 8:00,25,0,0,22.1,0.87,1018.5,0,,,22.1,20.4,屏東縣,20,獅子鄉,344,2021/12/12 8:00,2021/12/12
24.855031,121.822586,24.85323333,121.8307972,頭城,C0U860,2021/12/12 13:00,5,54,3.7,22.3,0.77,1019.8,0,,,23.2,18.5,宜蘭縣,7,頭城鎮,51,2021/12/12 13:00,2021/12/12
22.669025,121.467267,22.66720278,121.4753278,綠島,C0S730,2021/12/12 18:00,110,79,9.4,21.5,0.86,1006.5,3,15.4,67,23.9,19.1,臺東縣,22,綠島鄉,315,2021/12/12 18:00,2021/12/12
24.528722,121.107917,24.52697222,121.11605,雪霸,C0D550,2021/12/12 3:00,1956,0,0,8.3,0.58,815.6,0,,,9,7.8,新竹縣,10,五峰鄉,89,2021/12/12 3:00,2021/12/12
23.476069,121.402597,23.47426389,121.4107111,德武,C0Z280,2021/12/12 11:00,224,62,1,21.9,0.79,996.9,0,,,22.2,16.2,花蓮縣,21,玉里鎮,221,2021/12/12 11:00,2021/12/12
23.104417,120.219972,23.10261389,120.2278389,安定,C0X150,2021/12/12 11:00,18,32,2.7,23.7,0.74,1019.9,0,,,23.7,18.4,臺南市,4,安定區,261,2021/12/12 11:00,2021/12/12
23.0413,121.166931,23.0395,121.1750167,關山,C0S890,2021/12/12 6:00,238,0,0.2,15.3,0.98,996.7,0,,,16.5,15.3,臺東縣,22,關山鎮,262,2021/12/12 6:00,2021/12/12
23.300847,120.656664,23.299075,120.6647667,茶山,C0M800,2021/12/12 0:00,440,104,1,16.5,0.88,970.1,0,,,24.6,14.4,嘉義縣,17,阿里山鄉,208,2021/12/12 0:00,2021/12/12
25.068667,121.650556,25.06688056,121.6587778,汐止,C0AH00,2021/12/12 3:00,38,57,0.8,19.6,0.93,1015.9,0,,,19.6,18.2,新北市,6,汐止區,14,2021/12/12 3:00,2021/12/12
22.596589,120.952772,22.59478889,120.960825,金峰嘉蘭,C0S920,2021/12/12 15:00,98,118,1.2,23.7,0.69,1002.3,0,,,25.7,17.3,臺東縣,22,金峰鄉,352,2021/12/12 15:00,2021/12/12
22.266147,120.815942,22.26434722,120.8239722,達仁林場,C0SA90,2021/12/12 16:00,497,22,1.1,19.2,0.91,960.9,0,,,23.4,16.4,臺東縣,22,達仁鄉,337,2021/12/12 16:00,2021/12/12
22.206281,120.742964,22.20448056,120.7509889,丹路,C0R800,2021/12/12 8:00,131,64,0.7,22.2,0.74,1005.7,0,,,22.4,20.8,屏東縣,20,獅子鄉,344,2021/12/12 8:00,2021/12/12
24.964408,121.880658,24.96260556,121.888875,桃源谷,C0UA70,2021/12/12 9:00,547,32,5.3,16.5,0.99,961.2,2,,,17.4,16.3,宜蘭縣,7,頭城鎮,51,2021/12/12 9:00,2021/12/12
22.890339,120.656039,22.88855833,120.6641083,茂林蝶谷,CM0180,2021/12/12 7:00,313,0,0.1,16.6,0.78,986.8,0,,,17.7,15.8,高雄市,5,茂林區,278,2021/12/12 7:00,2021/12/12
24.669917,121.644819,24.66812222,121.6530167,三星,C0U890,2021/12/12 2:00,116,278,1.5,18,0.82,1008.2,0,,,18.6,18,宜蘭縣,7,三星鄉,84,2021/12/12 2:00,2021/12/12
23.597319,120.685342,23.59555,120.6934611,草嶺,C0K240,2021/12/12 7:00,1132,132,3.5,14.3,0.68,897.8,0,,,15.8,14,雲林縣,16,古坑鄉,196,2021/12/12 7:00,2021/12/12
21.933481,120.830933,21.93167222,120.8389417,龍磐,C0R710,2021/12/12 3:00,117,40,6.5,21.2,0.84,1005.4,0,,,21.2,20,屏東縣,20,恆春鎮,350,2021/12/12 3:00,2021/12/12
23.455769,120.741403,23.45399444,120.7495167,達邦,C0M820,2021/12/12 17:00,980,0,0,18.4,0.65,909.5,0,,,21.6,12.2,嘉義縣,17,阿里山鄉,208,2021/12/12 17:00,2021/12/12
25.15225,121.395306,25.15021111,121.4039472,八里,C0AD10,2021/12/12 16:00,27,42,1.9,17.6,0.92,1019.5,0,,,19.9,17.6,新北市,6,八里區,9,2021/12/12 16:00,2021/12/12
22.454908,120.879528,22.45310833,120.8875722,土阪,C0SA80,2021/12/12 0:00,136,258,0.6,18.1,0.93,1005,0,,,24,15.8,臺東縣,22,達仁鄉,337,2021/12/12 0:00,2021/12/12
22.569219,120.951617,22.56741944,120.9596667,金崙山,C0SA20,2021/12/12 14:00,857,9,1.4,16.8,0.96,922.8,0,,,19.7,14.5,臺東縣,22,太麻里鄉,312,2021/12/12 14:00,2021/12/12
24.390375,121.228197,24.38859444,121.2363389,雪山圈谷A,C0F0A0,2021/12/12 13:00,3587,44,2.3,3.1,0.66,,0,,,5.5,-0.7,臺中市,2,和平區,104,2021/12/12 13:00,2021/12/12
24.76925,121.049861,24.76714722,121.0578806,竹東,C0D560,2021/12/12 0:00,147,83,0.3,19,0.85,1004.4,0,,,23.2,16.5,新竹縣,10,竹東鎮,73,2021/12/12 0:00,2021/12/12
23.2321,120.174072,23.23034722,120.1821667,學甲,C0X220,2021/12/12 1:00,26,19,2.3,18.5,0.94,1016.4,0,,,18.5,18.4,臺南市,4,學甲區,239,2021/12/12 1:00,2021/12/12
25.259639,121.493361,25.25813056,121.5019167,三芝,C0AD00,2021/12/12 8:00,86,48,1.7,17.7,0.98,1013.9,12.5,9.7,22,19.1,17.6,新北市,6,三芝區,2,2021/12/12 8:00,2021/12/12
23.680772,120.387436,23.67901944,120.3955611,土庫,C0K390,2021/12/12 6:00,31,138,0.7,16.8,0.99,1016.8,0,,,18.6,16.8,雲林縣,16,土庫鎮,189,2021/12/12 6:00,2021/12/12
23.0413,121.166931,23.0395,121.1750167,關山,C0S890,2021/12/12 0:00,238,0,0,16.4,0.97,996.1,0,,,27,13.8,臺東縣,22,關山鎮,262,2021/12/12 0:00,2021/12/12
23.269517,120.117367,23.26777222,120.1254806,北門,C0X290,2021/12/12 1:00,10,26,4.2,19.9,0.92,1018.3,0,,,19.9,19.8,臺南市,4,北門區,237,2021/12/12 1:00,2021/12/12
25.111389,121.461389,25.10950833,121.4696806,社子,C0A980,2021/12/12 17:00,11,332,2.6,18.4,0.82,1022,7.5,,,20.1,18,臺北市,1,士林區,7,2021/12/12 17:00,2021/12/12
22.624528,120.322583,22.62274167,120.3306694,苓雅,C0V710,2021/12/12 7:00,34,32,1.4,19,0.92,1016,0,,,20.6,19,高雄市,5,苓雅區,323,2021/12/12 7:00,2021/12/12
22.811789,121.101247,22.81003056,121.1093083,檳榔四格山,C0SA10,2021/12/12 2:00,411,0,0.2,17.7,0.85,973,0,,,17.8,16.9,臺東縣,22,卑南鄉,289,2021/12/12 2:00,2021/12/12
22.702861,120.339667,22.70108333,120.3477222,仁武,C0V680,2021/12/12 0:00,40,2,2.2,19,0.93,1014.8,0,,,27.9,18,高雄市,5,仁武區,306,2021/12/12 0:00,2021/12/12
23.456792,120.323303,23.45504722,120.3314389,太保,C0M680,2021/12/12 2:00,37,0,0,17.7,0.97,1016.6,0,,,18.2,17.6,嘉義縣,17,太保市,218,2021/12/12 2:00,2021/12/12
23.903417,120.501389,23.90166944,120.5093889,田尾,C0G820,2021/12/12 11:00,29,27,0.9,24.3,0.69,1018.2,0,,,24.3,16.3,彰化縣,14,田尾鄉,167,2021/12/12 11:00,2021/12/12
25.130833,121.915278,25.12903611,121.9233722,鼻頭角,C0A950,2021/12/12 14:00,60,8,11.2,18.6,0.89,1013.1,0,,,20.3,18.6,新北市,6,瑞芳區,18,2021/12/12 14:00,2021/12/12
22.203367,120.697225,22.20156944,120.70525,獅子,C0R740,2021/12/12 8:00,58,93,2,23.4,0.65,1014.1,0,,,23.5,21.5,屏東縣,20,獅子鄉,344,2021/12/12 8:00,2021/12/12
22.731944,120.338583,22.73030556,120.3466389,大社,C0V770,2021/12/12 18:00,26,341,1.2,22.7,0.72,1014.9,0,,,27,17.2,高雄市,5,大社區,304,2021/12/12 18:00,2021/12/12
23.173442,121.241286,23.17163889,121.2493778,富里,C0T9N0,2021/12/12 4:00,261,0,0,15.6,1,991.4,0,,,17,15.6,花蓮縣,21,富里鄉,241,2021/12/12 4:00,2021/12/12
25.081206,121.567222,25.07942222,121.57545,內湖,C0A9F0,2021/12/12 5:00,35,0,0,19.5,1,1017.6,0,,,21.6,19.4,臺北市,1,內湖區,21,2021/12/12 5:00,2021/12/12
24.245,121.237667,24.24752222,121.2436694,梨山,C0F860,2021/12/12 4:00,2215,0,0,5.2,0.73,784.8,0,,,6.1,4,臺中市,2,和平區,104,2021/12/12 4:00,2021/12/12
23.720939,120.433911,23.71918333,120.4420361,虎尾,C0K330,2021/12/12 19:00,38,23,2,19,0.81,1014.6,0,,,25.8,16.4,雲林縣,16,虎尾鎮,190,2021/12/12 19:00,2021/12/12
24.609,120.817906,24.60725,120.8260944,高鐵苗栗,C0E870,2021/12/12 1:00,34,0,0,19.9,0.99,1018.2,0,,,20,19.9,苗栗縣,11,後龍鎮,91,2021/12/12 1:00,2021/12/12
22.993514,120.285431,22.99175,120.293525,媽廟,C0O990,2021/12/12 2:00,18,17,1.7,18.4,0.99,1016.4,0,,,18.4,18.1,臺南市,4,歸仁區,271,2021/12/12 2:00,2021/12/12
23.838817,120.693306,23.83705278,120.7014472,名間,C0I410,2021/12/12 17:00,180,331,2.5,20.8,0.71,997.1,0,,,26.1,14.3,南投縣,13,名間鄉,173,2021/12/12 17:00,2021/12/12
22.529111,120.617056,22.52730556,120.6251111,來義,C0R240,2021/12/12 7:00,87,0,0.1,17.3,0.99,1009.6,0,,,19.7,17,屏東縣,20,萬巒鄉,319,2021/12/12 7:00,2021/12/12
23.848356,120.374339,23.84661111,120.3824611,竹塘,C0G750,2021/12/12 2:00,31,352,2,18.5,0.92,1016.8,0,,,18.7,18.5,彰化縣,14,竹塘鄉,172,2021/12/12 2:00,2021/12/12
24.906556,121.035417,24.90479444,121.0436278,湖口,C0D650,2021/12/12 12:00,97,41,4.7,18.2,0.89,1011.4,0,10.4,37,19.4,17.8,新竹縣,10,湖口鄉,59,2021/12/12 12:00,2021/12/12
24.822,121.344094,24.82020833,121.3522806,復興,C0C460,2021/12/12 14:00,482,0,0.2,17.3,0.91,966.7,0,,,20,12.8,桃園市,8,復興區,67,2021/12/12 14:00,2021/12/12
23.456792,120.323303,23.45504722,120.3314389,太保,C0M680,2021/12/12 17:00,37,348,2.5,21.2,0.73,1015.4,0,,,26.4,16.9,嘉義縣,17,太保市,218,2021/12/12 17:00,2021/12/12
23.555011,120.3376,23.55326111,120.3457194,新港,C0M790,2021/12/12 10:00,15,6,2,21.5,0.73,1018.3,0,,,21.5,16.2,嘉義縣,17,新港鄉,211,2021/12/12 10:00,2021/12/12
22.652556,120.519139,22.650775,120.5271917,麟洛,C0R570,2021/12/12 19:00,37,37,0.6,23.5,0.75,1013,0,,,28.2,18,屏東縣,20,麟洛鄉,317,2021/12/12 19:00,2021/12/12
23.924,120.311861,23.92230278,120.320025,芳苑,C0G870,2021/12/12 3:00,12,19,1.6,19.7,1,1018.6,0,,,20.1,19.6,彰化縣,14,芳苑鄉,149,2021/12/12 3:00,2021/12/12
25.265556,121.557278,25.26378333,121.5652583,富貴角,C0A920,2021/12/12 6:00,196,31,2.6,17.4,1,998.5,1,8.8,344,18.6,17.4,新北市,6,石門區,1,2021/12/12 6:00,2021/12/12
23.023139,120.339806,23.021375,120.3478778,虎頭埤,C0O970,2021/12/12 2:00,71,52,0.5,17.7,0.98,1010.5,0,,,17.7,17.1,臺南市,4,新化區,267,2021/12/12 2:00,2021/12/12
22.629111,120.290583,22.62742222,120.2988028,新興,C0V490,2021/12/12 9:00,20,344,1.4,21,0.77,1019.3,0,,,21.1,19.2,高雄市,5,新興區,324,2021/12/12 9:00,2021/12/12
23.993611,121.529167,23.99186111,121.5371694,水源,C0T9B0,2021/12/12 12:00,558,144,1.3,19.8,0.79,958,0,,,21.9,16.5,花蓮縣,21,秀林鄉,108,2021/12/12 12:00,2021/12/12
22.785583,120.238278,22.78380556,120.2463611,彌陀,C0V650,2021/12/12 11:00,28,7,3.7,24.5,0.69,1019.5,0,,,24.5,18.3,高雄市,5,彌陀區,298,2021/12/12 11:00,2021/12/12
23.023139,120.339806,23.021375,120.3478778,虎頭埤,C0O970,2021/12/12 12:00,71,326,1.2,26.2,0.62,1010.9,0,,,26.2,17.1,臺南市,4,新化區,267,2021/12/12 12:00,2021/12/12
22.405861,120.745083,22.40526389,120.7531806,大漢山,C0R440,2021/12/12 14:00,1679,15,1.2,12.3,1,837.4,0,,,14.7,10.4,屏東縣,20,春日鄉,343,2021/12/12 14:00,2021/12/12
23.692672,120.295503,23.69092778,120.3036194,褒忠,C0K430,2021/12/12 5:00,30,356,1.4,18.1,0.95,1017.3,0,,,18.5,18.1,雲林縣,16,褒忠鄉,191,2021/12/12 5:00,2021/12/12
22.970111,120.249778,22.96825833,120.2576889,仁德,C0X160,2021/12/12 5:00,26,8,2.4,,1,1016.4,0,,,19,18.2,臺南市,4,仁德區,279,2021/12/12 5:00,2021/12/12
24.523767,121.824986,24.52195833,121.833175,東澳,C0U760,2021/12/12 1:00,22,0,0.1,18.2,0.96,1018.7,0,,,18.3,18.2,宜蘭縣,7,南澳鄉,93,2021/12/12 1:00,2021/12/12
22.191928,120.684131,22.19013056,120.6921556,楓港,C0R670,2021/12/12 11:00,26,357,2,25.7,0.61,1017.9,0,,,26,22,屏東縣,20,枋山鄉,346,2021/12/12 11:00,2021/12/12
24.964408,121.880658,24.96260556,121.888875,桃源谷,C0UA70,2021/12/12 0:00,547,146,1.1,17.2,0.99,959.4,44,,,22.1,15.7,宜蘭縣,7,頭城鎮,51,2021/12/12 0:00,2021/12/12
22.075833,120.708056,22.0744,120.7162472,車城,C0R320,2021/12/12 1:00,7,73,7.5,22,0.82,1018.1,0,,,22.3,22,屏東縣,20,車城鄉,349,2021/12/12 1:00,2021/12/12
22.369511,120.582611,22.36772222,120.5906472,枋寮,C0R660,2021/12/12 14:00,20,252,3,25.4,0.71,1015.3,0,,,25.5,18.9,屏東縣,20,枋寮鄉,358,2021/12/12 14:00,2021/12/12
23.948333,120.577528,23.94650278,120.5855972,員林,C0G650,2021/12/12 9:00,34,32,0.9,21.3,0.75,1017.6,0,,,21.3,17.7,彰化縣,14,員林市,156,2021/12/12 9:00,2021/12/12
23.829972,120.793328,23.82820556,120.8014667,集集,C0I380,2021/12/12 14:00,258,310,0.9,26.3,0.4,987,0,,,26.9,17,南投縣,13,集集鎮,176,2021/12/12 14:00,2021/12/12
23.764722,120.677778,23.761225,120.6881556,竹山,C0I110,2021/12/12 0:00,161,0,0,17.5,0.89,1000.5,0,,,26.7,16.7,南投縣,13,竹山鎮,178,2021/12/12 0:00,2021/12/12
23.80215,120.459253,23.8004,120.4673833,西螺,C0K420,2021/12/12 9:00,42,30,2.5,20.3,0.76,1016.3,0,,,20.3,16.5,雲林縣,16,西螺鎮,182,2021/12/12 9:00,2021/12/12
22.086486,120.855333,22.08468056,120.8633528,南仁湖,C0R760,2021/12/12 13:00,336,18,4.5,21,0.86,980.3,5,,,21.3,17.9,屏東縣,20,滿州鄉,348,2021/12/12 13:00,2021/12/12
22.026208,120.831875,22.02440278,120.8398917,滿州,C0R780,2021/12/12 6:00,72,24,2.7,21.1,0.85,1013.5,0.5,,,21.6,20.3,屏東縣,20,滿州鄉,348,2021/12/12 6:00,2021/12/12
25.019167,121.934167,25.01784167,121.9420833,福隆,C0A880,2021/12/12 15:00,6,31,3.6,19,1,1018.2,0,,,20.7,16.7,新北市,6,貢寮區,27,2021/12/12 15:00,2021/12/12
22.648611,120.348056,22.64665278,120.3561222,鳳山,C0V440,2021/12/12 7:00,27,304,1.1,18.4,1,1017.2,0,,,19.7,18.2,高雄市,5,鳳山區,321,2021/12/12 7:00,2021/12/12
22.731944,120.338583,22.73030556,120.3466389,大社,C0V770,2021/12/12 6:00,26,12,1.1,17.3,0.99,1017,0,,,18.4,17.2,高雄市,5,大社區,304,2021/12/12 6:00,2021/12/12
24.578356,121.487153,24.57653333,121.4953333,土場,C0UA00,2021/12/12 10:00,392,286,1.3,19.7,0.59,978,0,,,19.7,13.8,宜蘭縣,7,大同鄉,81,2021/12/12 10:00,2021/12/12
23.538014,120.1612,23.53626667,120.1693111,宜梧,C0K291,2021/12/12 15:00,8,7,6.5,22.3,0.75,1017.1,0,13.4,11,23.5,18.7,雲林縣,16,口湖鄉,201,2021/12/12 15:00,2021/12/12
24.138861,120.630111,24.13700556,120.6379694,南屯,C0F9U0,2021/12/12 4:00,74,68,0.5,19.3,0.8,1011.9,0,,,20.1,19.3,臺中市,2,南屯區,129,2021/12/12 4:00,2021/12/12
23.905067,120.367928,23.90331944,120.3760694,二林,C0G730,2021/12/12 12:00,27,360,6.2,22.7,0.74,1017.5,0,,,23.4,17.9,彰化縣,14,二林鎮,155,2021/12/12 12:00,2021/12/12
25.225278,121.635556,25.22362778,121.6439667,金山,C0A940,2021/12/12 19:00,49,63,1.3,16.9,0.99,1019.3,27.5,7.7,81,19.5,16.5,新北市,6,金山區,3,2021/12/12 19:00,2021/12/12
22.907694,120.68,22.90594444,120.6880556,萬山,C0V790,2021/12/12 19:00,410,3,2.1,21.1,0.78,971.1,0,,,26.3,16.5,高雄市,5,茂林區,278,2021/12/12 19:00,2021/12/12
23.349228,120.406328,23.34746667,120.4144278,白河,C0X210,2021/12/12 6:00,38,135,0.6,16,1,1014.2,0,,,18,16,臺南市,4,白河區,228,2021/12/12 6:00,2021/12/12
24.274222,120.650306,24.27248056,120.6583139,神岡,C0F9I0,2021/12/12 2:00,194,22,0.9,17.2,0.99,996.7,0,,,17.8,17.1,臺中市,2,神岡區,114,2021/12/12 2:00,2021/12/12
22.320422,120.849339,22.31861944,120.8573722,山豬窟,C0S990,2021/12/12 12:00,409,31,2.6,21.8,0.75,974.1,0.5,8.2,31,22.6,17.3,臺東縣,22,大武鄉,342,2021/12/12 12:00,2021/12/12
22.123631,120.828758,22.121825,120.8367806,高士,C0R830,2021/12/12 13:00,383,60,4.9,20.9,0.84,974.6,9,,,21.7,17.5,屏東縣,20,牡丹鄉,347,2021/12/12 13:00,2021/12/12
22.590417,120.277889,22.5886,120.2859444,旗津,C0V500,2021/12/12 2:00,6,23,1.7,18.7,0.91,1017.5,0,,,20,18.7,高雄市,5,旗津區,329,2021/12/12 2:00,2021/12/12
23.152222,121.062222,23.15019444,121.070025,下馬,C0S660,2021/12/12 2:00,794,223,1.6,12.2,0.91,932.3,0,,,14.6,12.2,臺東縣,22,海端鄉,240,2021/12/12 2:00,2021/12/12
23.739206,120.409817,23.73745556,120.4179444,高鐵雲林,C0K580,2021/12/12 2:00,26,356,0.4,,0.99,1017,0,,,18.4,17.9,雲林縣,16,虎尾鎮,190,2021/12/12 2:00,2021/12/12
25.111389,121.461389,25.10950833,121.4696806,社子,C0A980,2021/12/12 4:00,11,332,2.7,19.7,0.9,1020.1,0,,,19.9,19.6,臺北市,1,士林區,7,2021/12/12 4:00,2021/12/12
23.740156,121.531975,23.73835,121.5401083,蕃薯寮,C0Z270,2021/12/12 11:00,343,36,2.2,21,0.76,983,0,,,21.3,17,花蓮縣,21,壽豐鄉,161,2021/12/12 11:00,2021/12/12
23.427144,120.514797,23.42538056,120.5229028,中埔,C0M640,2021/12/12 4:00,155,165,0.9,16.3,0.93,1001.3,0,,,17.7,16.3,嘉義縣,17,中埔鄉,224,2021/12/12 4:00,2021/12/12
23.722303,120.532972,23.720575,120.5411167,斗六,C0K400,2021/12/12 17:00,65,6,3.1,21.1,0.71,1011.2,0,,,26,15.8,雲林縣,16,斗六市,355,2021/12/12 17:00,2021/12/12
23.564311,119.460328,23.5626,119.4684361,西嶼,C0W120,2021/12/12 15:00,58,16,13.5,20.8,0.82,1012.2,0,18.9,16,21.7,20.5,澎湖縣,23,西嶼鄉,200,2021/12/12 15:00,2021/12/12
25.259639,121.493361,25.25813056,121.5019167,三芝,C0AD00,2021/12/12 3:00,86,37,2,18.5,0.96,1011.4,9,8.6,37,19.1,18.5,新北市,6,三芝區,2,2021/12/12 3:00,2021/12/12
24.762506,121.573147,24.76071667,121.58135,福山植物園,C0AH90,2021/12/12 0:00,660,0,0,14.8,1,949.5,0,,,18.9,11.9,新北市,6,烏來區,61,2021/12/12 0:00,2021/12/12
22.904381,121.075983,22.90258056,121.0840583,延平,C0S930,2021/12/12 6:00,248,266,1.8,17.6,0.76,993.5,0,,,18.2,16.7,臺東縣,22,延平鄉,280,2021/12/12 6:00,2021/12/12
24.407236,120.741644,24.40547778,120.7498194,三義,C0E880,2021/12/12 0:00,507,61,3,15.3,1,961.7,0,,,20.8,13.6,苗栗縣,11,三義鄉,106,2021/12/12 0:00,2021/12/12
22.610825,120.977275,22.60902222,120.9853278,太麻里,C0S690,2021/12/12 1:00,522,0,0.1,18.6,0.81,960.3,0,,,19.1,18.6,臺東縣,22,太麻里鄉,312,2021/12/12 1:00,2021/12/12
22.569219,120.951617,22.56741944,120.9596667,金崙山,C0SA20,2021/12/12 8:00,857,29,2,15.6,0.91,925.3,0,,,16,14.5,臺東縣,22,太麻里鄉,312,2021/12/12 8:00,2021/12/12
22.884944,120.319528,22.88320833,120.3275083,阿蓮,C0V530,2021/12/12 0:00,34,49,0.9,18.3,0.96,1014.8,0,,,27.2,16.1,高雄市,5,阿蓮區,287,2021/12/12 0:00,2021/12/12
24.017222,120.613056,24.01567778,120.6213,芬園,C0G620,2021/12/12 4:00,110,0,0,15.1,1,1006.4,0,,,16.5,15.1,彰化縣,14,芬園鄉,148,2021/12/12 4:00,2021/12/12
22.629111,120.290583,22.62742222,120.2988028,新興,C0V490,2021/12/12 5:00,20,1,2.1,19.4,0.89,1017.7,0,,,20.5,19.4,高雄市,5,新興區,324,2021/12/12 5:00,2021/12/12
24.669917,121.644819,24.66812222,121.6530167,三星,C0U890,2021/12/12 4:00,116,277,3,18.4,0.77,1008.2,0,,,18.7,18,宜蘭縣,7,三星鄉,84,2021/12/12 4:00,2021/12/12
22.026433,120.685536,22.02463333,120.69355,大坪頂,C0R730,2021/12/12 16:00,163,63,3.3,23.6,0.7,999.1,0,,,25.5,19.8,屏東縣,20,恆春鎮,350,2021/12/12 16:00,2021/12/12
23.602361,120.450281,23.60060556,120.4583972,大林,C0M670,2021/12/12 9:00,43,23,1,19.7,0.77,1015.8,0,,,19.7,15.8,嘉義縣,17,大林鎮,202,2021/12/12 9:00,2021/12/12
24.041264,121.596386,24.03946111,121.6045389,新城,C0Z180,2021/12/12 2:00,34,0,0.1,18.7,0.99,1016.8,0,,,19.3,18.6,花蓮縣,21,新城鄉,136,2021/12/12 2:00,2021/12/12
23.349228,120.406328,23.34746667,120.4144278,白河,C0X210,2021/12/12 3:00,38,0,0.2,17,1,1013.1,0,,,18,17,臺南市,4,白河區,228,2021/12/12 3:00,2021/12/12
25.019167,121.934167,25.01784167,121.9420833,福隆,C0A880,2021/12/12 3:00,6,0,0,16.8,1,1017.3,0,,,17.3,16.8,新北市,6,貢寮區,27,2021/12/12 3:00,2021/12/12
24.248194,120.824917,24.24642778,120.8330472,東勢,C0F850,2021/12/12 13:00,379,2,1.3,24.9,0.56,975.3,0,,,25,12.7,臺中市,2,東勢區,113,2021/12/12 13:00,2021/12/12
26.360539,120.475308,26.35883611,120.4836306,東引,C0W170,2021/12/12 17:00,42,41,8,16,0.77,1018.5,0,14.5,27,17.3,16,連江縣,99,東引鄉,999,2021/12/12 17:00,2021/12/12
22.143756,120.886331,22.14206944,120.8943556,九棚,C0R790,2021/12/12 3:00,111,24,5.1,20.7,0.9,1006.9,2,,,21,20.3,屏東縣,20,牡丹鄉,347,2021/12/12 3:00,2021/12/12
24.719928,121.679461,24.71813333,121.6876639,內城,C0U900,2021/12/12 3:00,63,166,1.2,19.1,0.87,1014.4,0,,,19.8,18.8,宜蘭縣,7,員山鄉,74,2021/12/12 3:00,2021/12/12
24.345722,121.648142,24.34392222,121.6563167,和平林道,C0Z220,2021/12/12 1:00,589,256,1.6,15.4,0.93,954.4,0,,,16.1,15.4,花蓮縣,21,秀林鄉,108,2021/12/12 1:00,2021/12/12
22.529111,120.617056,22.52730556,120.6251111,來義,C0R240,2021/12/12 18:00,87,0,0.2,22.1,0.8,1007.5,0,,,28.8,17,屏東縣,20,萬巒鄉,319,2021/12/12 18:00,2021/12/12
21.923578,120.727792,21.92168889,120.7358167,貓鼻頭,C0R350,2021/12/12 16:00,35,55,3.6,25.1,0.71,1013.7,0,,,26.1,21.7,屏東縣,20,恆春鎮,350,2021/12/12 16:00,2021/12/12
24.277822,120.769478,24.27606111,120.7776444,石岡,C0F0B0,2021/12/12 8:00,311,86,1.3,16,0.83,986,0,,,16,13.4,臺中市,2,石岡區,116,2021/12/12 8:00,2021/12/12
22.206281,120.742964,22.20448056,120.7509889,丹路,C0R800,2021/12/12 1:00,131,121,3.8,22.2,0.69,1004.2,0,,,22.4,22.2,屏東縣,20,獅子鄉,344,2021/12/12 1:00,2021/12/12
22.856639,120.251361,22.85499722,120.2594389,路竹,C0V750,2021/12/12 10:00,50,30,2.7,22.2,0.72,1015.4,0,,,22.5,18.4,高雄市,5,路竹區,288,2021/12/12 10:00,2021/12/12
25.111389,121.461389,25.10950833,121.4696806,社子,C0A980,2021/12/12 10:00,11,338,1.7,19.4,0.96,1022.8,1,,,19.9,19.1,臺北市,1,士林區,7,2021/12/12 10:00,2021/12/12
22.694833,120.534611,22.69312778,120.5426222,長治,C0R480,2021/12/12 9:00,57,10,1.3,20.8,0.82,1014.2,0,,,20.8,16.7,屏東縣,20,長治鄉,307,2021/12/12 9:00,2021/12/12
23.494611,120.2825,23.49286389,120.2906111,六腳,C0M740,2021/12/12 13:00,15,19,2.2,25.7,0.58,1016.2,0,,,25.7,16.6,嘉義縣,17,六腳鄉,214,2021/12/12 13:00,2021/12/12
22.907694,120.68,22.90594444,120.6880556,萬山,C0V790,2021/12/12 3:00,410,26,2.8,16.9,0.84,971.5,0,,,17.3,16.7,高雄市,5,茂林區,278,2021/12/12 3:00,2021/12/12
23.339792,120.675231,23.33801667,120.6833306,新美,C0M860,2021/12/12 12:00,578,232,1.4,23.8,0.5,953.6,0,,,23.9,14.6,嘉義縣,17,阿里山鄉,208,2021/12/12 12:00,2021/12/12
22.907694,120.68,22.90594444,120.6880556,萬山,C0V790,2021/12/12 7:00,410,21,3,17.1,0.81,972.8,0,,,17.3,16.5,高雄市,5,茂林區,278,2021/12/12 7:00,2021/12/12
23.270336,121.297364,23.26852778,121.3054694,東里,C0Z300,2021/12/12 19:00,182,4,2.9,20.1,0.84,1001.6,0,,,23.8,15.7,花蓮縣,21,富里鄉,241,2021/12/12 19:00,2021/12/12
23.472294,120.947853,23.47048889,120.9559944,玉山風口,C0I520,2021/12/12 19:00,3860,196,7.5,3.5,0.05,642.9,0,,,8.2,2,南投縣,13,信義鄉,175,2021/12/12 19:00,2021/12/12
23.274339,120.239506,23.27260278,120.2476222,鹽水,C0X230,2021/12/12 16:00,29,356,6.2,22.8,0.72,1015.5,0,,,26,16.6,臺南市,4,鹽水區,234,2021/12/12 16:00,2021/12/12
22.131817,120.784589,22.13003611,120.7926389,牡丹,C0R340,2021/12/12 12:00,230,28,2.3,24.1,0.7,992.6,0,,,24.3,18.3,屏東縣,20,牡丹鄉,347,2021/12/12 12:00,2021/12/12
22.418014,120.9189,22.41621111,120.9269417,加津林,C0S970,2021/12/12 4:00,19,314,0.9,20.3,0.86,1017.5,1,,,22.6,20.3,臺東縣,22,大武鄉,342,2021/12/12 4:00,2021/12/12
24.201583,120.8075,24.20017222,120.8158056,新社,C0F9V0,2021/12/12 10:00,525,6,2,22.9,0.55,960.2,0,,,22.9,14.6,臺中市,2,新社區,119,2021/12/12 10:00,2021/12/12
23.527931,120.547378,23.52616667,120.5554972,竹崎,C0M700,2021/12/12 17:00,150,347,2,21.9,0.71,1001,0,,,26.7,14.2,嘉義縣,17,竹崎鄉,215,2021/12/12 17:00,2021/12/12
23.647817,120.4234,23.64606389,120.431525,大埤,C0K450,2021/12/12 7:00,35,0,0,16,0.96,1016.2,0,,,17.7,15.7,雲林縣,16,大埤鄉,199,2021/12/12 7:00,2021/12/12
25.265556,121.557278,25.26378333,121.5652583,富貴角,C0A920,2021/12/12 19:00,196,65,1.5,16,1,1000.8,38,,,18.6,15.5,新北市,6,石門區,1,2021/12/12 19:00,2021/12/12
24.635528,121.7855,24.633725,121.7936972,冬山,C0U910,2021/12/12 15:00,17,43,5.1,19.7,0.93,1018.8,0.5,11.7,44,22.5,18.4,宜蘭縣,7,冬山鄉,87,2021/12/12 15:00,2021/12/12
22.976119,121.148625,22.97436111,121.1566972,瑞和,C0SA40,2021/12/12 17:00,200,345,0.4,22.5,0.71,996.4,0,,,26,14.8,臺東縣,22,鹿野鄉,274,2021/12/12 17:00,2021/12/12
25.013028,121.499889,25.01125,121.5081111,永和,C0AH10,2021/12/12 4:00,30,265,1.1,19.3,0.87,1017,0,,,21.4,19.3,新北市,6,永和區,45,2021/12/12 4:00,2021/12/12
23.882433,121.573839,23.88062778,121.5819806,大坑,C0T9E0,2021/12/12 4:00,415,0,0,16.7,0.81,973.3,0,,,17.1,16.7,花蓮縣,21,壽豐鄉,161,2021/12/12 4:00,2021/12/12
23.684706,121.519219,23.68294722,121.5274,加路蘭山,C0T9H0,2021/12/12 5:00,725,11,1.9,16,0.95,938.4,0,,,16.8,16,花蓮縣,21,豐濱鄉,188,2021/12/12 5:00,2021/12/12
24.217056,120.616239,24.21528056,120.62445,大雅(中科園區),C0F9X0,2021/12/12 17:00,166,32,7.6,17.9,0.84,999.2,0,15,48,22.6,17.4,臺中市,2,大雅區,121,2021/12/12 17:00,2021/12/12
25.284903,121.510814,25.28312778,121.5190583,白沙灣,C0AI20,2021/12/12 12:00,25,39,11.5,18.2,0.92,1018.6,2,,,19.7,18.1,新北市,6,石門區,1,2021/12/12 12:00,2021/12/12
23.104417,120.219972,23.10261389,120.2278389,安定,C0X150,2021/12/12 18:00,18,12,4.2,21.2,0.81,1017.5,0,,,26.6,18.4,臺南市,4,安定區,261,2021/12/12 18:00,2021/12/12
25.167694,121.62475,25.16591389,121.6329694,大坪,C0A860,2021/12/12 7:00,362,17,1.6,16.8,1,980.8,0,,,17.4,16.1,新北市,6,萬里區,5,2021/12/12 7:00,2021/12/12
22.900556,120.511111,22.89874167,120.5191528,美濃,C0V310,2021/12/12 7:00,46,0,0,17.7,0.95,1014.2,0,,,18.9,17.6,高雄市,5,美濃區,282,2021/12/12 7:00,2021/12/12
24.69,120.904167,24.68824722,120.9122056,頭份,C0E730,2021/12/12 13:00,26,46,2,20,0.8,1016.6,0,9.8,33,21.2,19.1,苗栗縣,11,頭份市,999,2021/12/12 13:00,2021/12/12
26.360539,120.475308,26.35883611,120.4836306,東引,C0W170,2021/12/12 14:00,42,28,8.2,16.6,0.78,1017.8,0,14.5,36,17.3,16.2,連江縣,99,東引鄉,999,2021/12/12 14:00,2021/12/12
25.167694,121.62475,25.16591389,121.6329694,大坪,C0A860,2021/12/12 12:00,362,23,5,16.4,1,980.4,50.5,10.4,16,17.4,16.1,新北市,6,萬里區,5,2021/12/12 12:00,2021/12/12
25.133889,121.600278,25.13215278,121.6086917,五指山,C0A870,2021/12/12 2:00,685,67,3.8,16.4,1,940.6,0,,,16.4,16.1,新北市,6,汐止區,14,2021/12/12 2:00,2021/12/12
24.850056,121.589639,24.84822222,121.5979917,桶後,C0A570,2021/12/12 10:00,360,0,0,17.4,0.95,982.1,0,,,18.7,15.5,新北市,6,烏來區,61,2021/12/12 10:00,2021/12/12
21.90265,120.847244,21.90083611,120.8552694,墾雷,C0R620,2021/12/12 8:00,34,31,3,22.6,0.84,1017.1,0.5,8.8,29,22.6,20.7,屏東縣,20,恆春鎮,350,2021/12/12 8:00,2021/12/12
25.081206,121.567222,25.07942222,121.57545,內湖,C0A9F0,2021/12/12 13:00,35,92,1.2,19.7,1,1018,7.5,,,21.6,19.3,臺北市,1,內湖區,21,2021/12/12 13:00,2021/12/12
24.248194,120.824917,24.24642778,120.8330472,東勢,C0F850,2021/12/12 5:00,379,126,0.5,13.4,0.97,976.7,0,,,15.7,13.4,臺中市,2,東勢區,113,2021/12/12 5:00,2021/12/12
23.897478,120.933219,23.89570278,120.94135,魚池,C0I370,2021/12/12 16:00,671,286,1.4,22.8,0.52,942.7,0,,,25,11.4,南投縣,13,魚池鄉,164,2021/12/12 16:00,2021/12/12
23.975444,120.672194,23.97367222,120.68085,草屯,C0H960,2021/12/12 14:00,120,20,2.1,26.4,0.48,1002.9,0,,,26.9,15.4,南投縣,13,草屯鎮,152,2021/12/12 14:00,2021/12/12
23.631111,120.217222,23.63041389,120.227125,四湖,C0K280,2021/12/12 4:00,23,9,1.8,19,0.94,1019.2,0,,,19.4,18.6,雲林縣,16,四湖鄉,195,2021/12/12 4:00,2021/12/12
24.979428,121.248156,24.97766111,121.256375,中壢,C0C700,2021/12/12 6:00,151,37,2.4,17.7,0.89,1004.9,0,8.2,32,18.8,17.7,桃園市,8,中壢區,43,2021/12/12 6:00,2021/12/12
25.133889,121.600278,25.13215278,121.6086917,五指山,C0A870,2021/12/12 8:00,685,46,3.1,15.7,1,942.5,0,,,16.4,15.4,新北市,6,汐止區,14,2021/12/12 8:00,2021/12/12
23.80215,120.459253,23.8004,120.4673833,西螺,C0K420,2021/12/12 17:00,42,16,3.8,20.5,0.72,1013.3,0,11.5,30,25.2,16.5,雲林縣,16,西螺鎮,182,2021/12/12 17:00,2021/12/12
22.516639,120.498972,22.51478056,120.5069139,崁頂,C0R520,2021/12/12 4:00,18,357,0.6,19.1,0.96,1015.6,0,,,19.8,19,屏東縣,20,崁頂鄉,334,2021/12/12 4:00,2021/12/12
24.277822,120.769478,24.27606111,120.7776444,石岡,C0F0B0,2021/12/12 1:00,311,81,2.1,15.1,0.95,984.3,0,,,15.6,15.1,臺中市,2,石岡區,116,2021/12/12 1:00,2021/12/12
23.553497,120.420331,23.55174167,120.4284444,民雄,C0M760,2021/12/12 12:00,40,346,1.6,25.5,0.53,1015.1,0,,,25.5,16.2,嘉義縣,17,民雄鄉,213,2021/12/12 12:00,2021/12/12
24.677222,121.578889,24.67528611,121.5870611,玉蘭,C0U650,2021/12/12 13:00,442,94,2.2,21.6,0.78,970,0,,,22.2,16.6,宜蘭縣,7,大同鄉,81,2021/12/12 13:00,2021/12/12
24.822,121.344094,24.82020833,121.3522806,復興,C0C460,2021/12/12 17:00,482,0,0,16.1,0.81,968,0,,,20,12.8,桃園市,8,復興區,67,2021/12/12 17:00,2021/12/12
25.130833,121.915278,25.12903611,121.9233722,鼻頭角,C0A950,2021/12/12 5:00,60,268,6.8,19.5,0.91,1012.8,0,,,20.2,19.5,新北市,6,瑞芳區,18,2021/12/12 5:00,2021/12/12
22.970111,120.249778,22.96825833,120.2576889,仁德,C0X160,2021/12/12 15:00,26,327,3.3,26.3,0.57,1013.5,0,,,26.5,18.1,臺南市,4,仁德區,279,2021/12/12 15:00,2021/12/12
23.605872,120.395439,23.60411944,120.4035556,溪口,C0M660,2021/12/12 7:00,40,42,0.8,16.8,0.97,1016.9,0,,,18.3,15.4,嘉義縣,17,溪口鄉,205,2021/12/12 7:00,2021/12/12
22.824944,120.228806,22.82315,120.2368556,永安,C0V620,2021/12/12 6:00,18,24,2.5,19,0.96,1018.7,0,,,19.5,19,高雄市,5,永安區,293,2021/12/12 6:00,2021/12/12
23.292536,121.340419,23.29072778,121.3485278,安通山,C0Z330,2021/12/12 19:00,488,348,1.8,17,0.94,966.7,0,,,22,15.5,花蓮縣,21,玉里鎮,221,2021/12/12 19:00,2021/12/12
23.370733,121.374825,23.36892778,121.3829306,赤柯山,C0Z290,2021/12/12 5:00,946,346,0.5,13.9,1,916,0,,,15.1,13.8,花蓮縣,21,玉里鎮,221,2021/12/12 5:00,2021/12/12
24.201583,120.8075,24.20017222,120.8158056,新社,C0F9V0,2021/12/12 17:00,525,13,2.3,18.3,0.87,957.8,0,,,25.6,14.6,臺中市,2,新社區,119,2021/12/12 17:00,2021/12/12
24.415731,121.775067,24.413925,121.7832472,樟樹山,C0UA60,2021/12/12 13:00,566,45,1.1,19.9,0.85,954.9,0,,,21.8,15.7,宜蘭縣,7,南澳鄉,93,2021/12/12 13:00,2021/12/12
24.123139,121.265361,24.12132222,121.2736417,昆陽,C0H990,2021/12/12 12:00,3076,187,3.3,8.3,0.6,708.5,0,,,8.3,1.5,南投縣,13,仁愛鄉,122,2021/12/12 12:00,2021/12/12
25.234933,121.586997,25.23315278,121.5952361,三和,C0A930,2021/12/12 9:00,216,4,1.4,17.1,1,997.1,15,7.7,36,18.8,17.1,新北市,6,金山區,3,2021/12/12 9:00,2021/12/12
23.720939,120.433911,23.71918333,120.4420361,虎尾,C0K330,2021/12/12 15:00,38,18,3.2,24,0.68,1012.7,0,9.7,358,25.8,16.4,雲林縣,16,虎尾鎮,190,2021/12/12 15:00,2021/12/12
23.221472,120.489222,23.21968056,120.4973278,曾文,C0O810,2021/12/12 6:00,161,0,0,15.2,1,1002.5,0,,,17.2,15.2,臺南市,4,楠西區,246,2021/12/12 6:00,2021/12/12
23.114444,120.289444,23.11288333,120.2972194,善化,C0O900,2021/12/12 8:00,9,3,2.5,18.5,0.95,1019.8,0,,,18.5,17.8,臺南市,4,善化區,255,2021/12/12 8:00,2021/12/12
24.182028,120.632861,24.17949444,120.641275,西屯,C0F9T0,2021/12/12 15:00,111,342,3.7,21.5,0.76,1004.2,0,10.1,350,24.2,18.2,臺中市,2,西屯區,125,2021/12/12 15:00,2021/12/12
24.996081,119.441347,24.9944,119.4495556,烏坵,C0W160,2021/12/12 7:00,49,28,12,16.8,0.85,1014.1,0,,,17.1,16.6,金門縣,99,烏坵鄉,999,2021/12/12 7:00,2021/12/12
24.186278,120.520833,24.18453611,120.5289722,龍井,C0F9R0,2021/12/12 10:00,20,36,4.2,21.5,0.73,1020.8,0,,,21.5,18.9,臺中市,2,龍井區,115,2021/12/12 10:00,2021/12/12
23.063556,120.290417,23.06161389,120.2981972,新市,C0O980,2021/12/12 2:00,18,6,0.4,18.1,0.99,1017.5,0,,,18.1,17.9,臺南市,4,新市區,263,2021/12/12 2:00,2021/12/12
24.042972,120.429528,24.04128889,120.4376694,福興,C0G770,2021/12/12 10:00,15,16,2.2,22.8,0.71,1019.6,0,,,22.8,19.5,彰化縣,14,福興鄉,145,2021/12/12 10:00,2021/12/12
25.004411,121.734572,25.00271944,121.7428917,火燒寮,C0A650,2021/12/12 12:00,287,28,1.4,18.3,1,989.1,0,,,18.9,13.5,新北市,6,平溪區,29,2021/12/12 12:00,2021/12/12
23.651544,120.306892,23.64979722,120.3150111,元長,C0K500,2021/12/12 3:00,12,9,2.3,18.4,0.92,1016.7,0,,,18.5,18.2,雲林縣,16,元長鄉,197,2021/12/12 3:00,2021/12/12
23.114444,120.289444,23.11288333,120.2972194,善化,C0O900,2021/12/12 3:00,9,9,1.4,18.3,0.99,1018,0,,,18.4,17.8,臺南市,4,善化區,255,2021/12/12 3:00,2021/12/12
23.349228,120.406328,23.34746667,120.4144278,白河,C0X210,2021/12/12 19:00,38,3,2.9,19.4,0.84,1013.1,0,,,27.2,15.8,臺南市,4,白河區,228,2021/12/12 19:00,2021/12/12
22.546944,120.3845,22.54506389,120.3925917,鳳森,C0V450,2021/12/12 2:00,51,0,0,19.2,0.89,1011.9,0,,,19.5,19.1,高雄市,5,小港區,330,2021/12/12 2:00,2021/12/12
23.631111,120.217222,23.63041389,120.227125,四湖,C0K280,2021/12/12 14:00,23,8,5.5,23.6,0.69,1017.7,0,,,25,18,雲林縣,16,四湖鄉,195,2021/12/12 14:00,2021/12/12
22.624528,120.322583,22.62274167,120.3306694,苓雅,C0V710,2021/12/12 14:00,34,306,2,25.7,0.66,1012.7,0,,,26,19,高雄市,5,苓雅區,323,2021/12/12 14:00,2021/12/12
22.762444,120.25925,22.76055833,120.2672111,梓官,C0V610,2021/12/12 3:00,22,14,1.5,17.5,0.96,1017.5,0,,,18.1,17.5,高雄市,5,梓官區,303,2021/12/12 3:00,2021/12/12
21.933481,120.830933,21.93167222,120.8389417,龍磐,C0R710,2021/12/12 4:00,117,37,5.7,21,0.84,1005.2,0,,,21.4,20,屏東縣,20,恆春鎮,350,2021/12/12 4:00,2021/12/12
22.669025,121.467267,22.66720278,121.4753278,綠島,C0S730,2021/12/12 8:00,110,103,3.7,22.4,0.78,1008.7,3,,,22.4,19.1,臺東縣,22,綠島鄉,315,2021/12/12 8:00,2021/12/12
23.288611,121.403889,23.28681667,121.411975,長濱,C0S830,2021/12/12 12:00,288,11,0.8,22,0.77,989.3,0,,,24,18.4,臺東縣,22,長濱鄉,227,2021/12/12 12:00,2021/12/12
23.58975,121.370389,23.58764167,121.378225,富源,C0Z080,2021/12/12 19:00,298,2,4,17.5,0.99,988,1.5,,,24.8,16,花蓮縣,21,光復鄉,194,2021/12/12 19:00,2021/12/12
24.692389,121.009083,24.6905,121.0171889,峨眉,C0D430,2021/12/12 17:00,87,31,1,18.4,0.83,1010.1,0,,,21.9,15.7,新竹縣,10,峨眉鄉,83,2021/12/12 17:00,2021/12/12
22.536139,120.531972,22.53436111,120.54,潮州,C0R220,2021/12/12 12:00,23,266,1.6,26.6,0.52,1016.6,0,,,27,18.7,屏東縣,20,潮州鎮,332,2021/12/12 12:00,2021/12/12
24.390581,121.263286,24.38879167,121.268675,雪山東峰A,C0F9Z0,2021/12/12 7:00,3193,185,0.8,3.5,0.24,698.7,0,,,6.1,2.2,臺中市,2,和平區,104,2021/12/12 7:00,2021/12/12
22.026208,120.831875,22.02440278,120.8398917,滿州,C0R780,2021/12/12 3:00,72,26,6,21,0.88,1012.5,0.5,,,21.4,20.3,屏東縣,20,滿州鄉,348,2021/12/12 3:00,2021/12/12
23.993611,121.529167,23.99186111,121.5371694,水源,C0T9B0,2021/12/12 15:00,558,134,0.9,19.8,0.77,956.7,0,,,21.9,16.5,花蓮縣,21,秀林鄉,108,2021/12/12 15:00,2021/12/12
22.291944,120.881944,22.279725,120.8892083,南田,C0S840,2021/12/12 15:00,22,0,0,25.2,0.74,1017.4,1,,,26.1,19.1,臺東縣,22,達仁鄉,337,2021/12/12 15:00,2021/12/12
22.694833,120.534611,22.69312778,120.5426222,長治,C0R480,2021/12/12 10:00,57,47,0.7,23.3,0.64,1014.1,0,,,23.3,16.7,屏東縣,20,長治鄉,307,2021/12/12 10:00,2021/12/12
22.798844,120.286889,22.79707778,120.2949583,岡山,C0V660,2021/12/12 7:00,25,9,2,17.8,1,1018.5,0,,,18.5,17.7,高雄市,5,岡山區,294,2021/12/12 7:00,2021/12/12
22.083031,121.495094,22.08119444,121.5031167,蘭嶼燈塔,C0S910,2021/12/12 19:00,212,96,3.4,21.2,0.87,995.9,1.5,9.2,152,22.9,19.5,臺東縣,22,蘭嶼鄉,351,2021/12/12 19:00,2021/12/12
22.798844,120.286889,22.79707778,120.2949583,岡山,C0V660,2021/12/12 1:00,25,7,1.6,18.3,0.99,1017.3,0,,,18.5,18.3,高雄市,5,岡山區,294,2021/12/12 1:00,2021/12/12
25.234933,121.586997,25.23315278,121.5952361,三和,C0A930,2021/12/12 7:00,216,337,1.7,17.1,0.99,996.2,8.5,7.7,325,18.8,17.1,新北市,6,金山區,3,2021/12/12 7:00,2021/12/12
21.933481,120.830933,21.93167222,120.8389417,龍磐,C0R710,2021/12/12 11:00,117,32,6.9,23.5,0.76,1006.8,0.5,,,23.5,20,屏東縣,20,恆春鎮,350,2021/12/12 11:00,2021/12/12
22.54,120.958889,22.53812222,120.966875,金崙,C0S790,2021/12/12 10:00,236,63,1,24.7,0.64,996.8,0,,,24.7,18.4,臺東縣,22,太麻里鄉,312,2021/12/12 10:00,2021/12/12
23.339792,120.675231,23.33801667,120.6833306,新美,C0M860,2021/12/12 13:00,578,313,0.4,25.4,0.48,952.6,0,,,25.4,14.6,嘉義縣,17,阿里山鄉,208,2021/12/12 13:00,2021/12/12
24.677222,121.578889,24.67528611,121.5870611,玉蘭,C0U650,2021/12/12 9:00,442,219,0.3,19.3,0.79,972.4,0,,,19.3,16.6,宜蘭縣,7,大同鄉,81,2021/12/12 9:00,2021/12/12
23.078333,120.136667,23.07669444,120.1448611,安南,C0O950,2021/12/12 19:00,4,350,1.6,20,0.86,1017.8,0,,,25.7,17.8,臺南市,4,安南區,265,2021/12/12 19:00,2021/12/12
23.323306,121.331556,23.3215,121.3396556,玉里,C0Z061,2021/12/12 5:00,174,114,0.5,16.1,0.96,1004.3,0,,,17.4,16.1,花蓮縣,21,玉里鎮,221,2021/12/12 5:00,2021/12/12
22.607389,120.387667,22.60561389,120.3957167,大寮,C0V730,2021/12/12 10:00,33,12,1.4,22.2,0.72,1016.4,0,,,22.2,17.8,高雄市,5,大寮區,320,2021/12/12 10:00,2021/12/12
22.075833,120.708056,22.0744,120.7162472,車城,C0R320,2021/12/12 11:00,7,62,4.4,26.7,0.59,1019.3,0,,,26.7,20.9,屏東縣,20,車城鄉,349,2021/12/12 11:00,2021/12/12
25.117336,121.504825,25.11559722,121.5131389,石牌,C0AI40,2021/12/12 18:00,37,12,2.8,19.2,0.78,1019.2,13.5,12.1,15,22.5,18.8,臺北市,1,北投區,6,2021/12/12 18:00,2021/12/12
23.902453,120.704053,23.90068889,120.7121917,南投服務區,CM0160,2021/12/12 4:00,159,0,0.2,15.3,0.99,,0,,,16.6,15.3,南投縣,13,南投市,160,2021/12/12 4:00,2021/12/12
24.390581,121.263286,24.38879167,121.268675,雪山東峰A,C0F9Z0,2021/12/12 0:00,3193,218,1.1,3.5,0.25,698.5,0,,,9.7,1.8,臺中市,2,和平區,104,2021/12/12 0:00,2021/12/12
23.114444,120.289444,23.11288333,120.2972194,善化,C0O900,2021/12/12 14:00,9,15,2.9,26.7,0.57,1015.8,0,,,26.7,17.8,臺南市,4,善化區,255,2021/12/12 14:00,2021/12/12
23.711022,121.411969,23.70921944,121.4201056,萬榮,C0Z200,2021/12/12 19:00,153,36,3,19.4,0.91,1006.4,3,10.1,52,23.8,16.4,花蓮縣,21,鳳林鎮,184,2021/12/12 19:00,2021/12/12
24.692389,121.009083,24.6905,121.0171889,峨眉,C0D430,2021/12/12 12:00,87,13,0.6,21.1,0.82,1010.2,0,,,21.8,15.7,新竹縣,10,峨眉鄉,83,2021/12/12 12:00,2021/12/12
23.853347,120.490944,23.85159722,120.4990833,溪州,C0G720,2021/12/12 7:00,50,17,1.4,17,1,1014.6,0,,,18.1,16.9,彰化縣,14,溪州鄉,174,2021/12/12 7:00,2021/12/12
25.1932,121.775678,25.19140833,121.7839139,基隆嶼,C0B020,2021/12/12 15:00,86,353,9.2,17,0.96,1010,3.5,14.7,355,19.6,16.6,基隆市,3,中正區,11,2021/12/12 15:00,2021/12/12
23.854225,120.312789,23.85248056,120.3209222,大城,C0G740,2021/12/12 2:00,24,23,1.4,19,0.93,1016.9,0,,,19.5,19,彰化縣,14,大城鄉,169,2021/12/12 2:00,2021/12/12
23.662497,121.416839,23.66069444,121.4249639,光復,C0T960,2021/12/12 13:00,120,6,2.1,22.5,0.86,1006.5,0,,,24.3,16.4,花蓮縣,21,光復鄉,194,2021/12/12 13:00,2021/12/12
23.932733,121.587003,23.930925,121.5951528,吉安光華,C0Z150,2021/12/12 7:00,27,233,2.5,18.2,0.92,1019.8,0,,,19.5,17.9,花蓮縣,21,吉安鄉,154,2021/12/12 7:00,2021/12/12
23.346047,121.295197,23.34425,121.3033028,卓溪,C0Z170,2021/12/12 1:00,199,0,0.2,17.1,0.97,1000.6,0,,,17.1,16.7,花蓮縣,21,卓溪鄉,207,2021/12/12 1:00,2021/12/12
23.812778,120.609028,23.81074167,120.6173,二水,C0G880,2021/12/12 12:00,92,328,2.1,26.3,0.51,1009.9,0,,,26.3,16.7,彰化縣,14,二水鄉,177,2021/12/12 12:00,2021/12/12
24.21475,120.695833,24.21310556,120.7039333,潭子,C0F9O0,2021/12/12 2:00,175,45,0.3,19.5,0.83,999.1,0,,,19.6,19.5,臺中市,2,潭子區,123,2021/12/12 2:00,2021/12/12
24.819336,121.757397,24.81753889,121.7656083,礁溪,C0U600,2021/12/12 3:00,10,0,0.1,19.5,0.91,1018.7,0,,,20.1,19.4,宜蘭縣,7,礁溪鄉,65,2021/12/12 3:00,2021/12/12
23.210556,121.254167,23.20871667,121.2623417,明里,C0Z020,2021/12/12 10:00,211,33,4.3,21.7,0.64,996.8,0,,,21.7,14.6,花蓮縣,21,富里鄉,241,2021/12/12 10:00,2021/12/12
22.170192,120.8332,22.16838889,120.841225,牡丹池山,C0R840,2021/12/12 2:00,536,60,3.8,17.3,1,958.4,0,,,17.5,17.2,屏東縣,20,牡丹鄉,347,2021/12/12 2:00,2021/12/12
23.886278,120.758528,23.88444722,120.7664056,中寮,C0H950,2021/12/12 9:00,192,0,0.1,17.5,0.93,998.6,0,,,17.5,12.3,南投縣,13,中寮鄉,159,2021/12/12 9:00,2021/12/12
25.133889,121.600278,25.13215278,121.6086917,五指山,C0A870,2021/12/12 5:00,685,44,2.6,15.4,1,940.9,0,,,16.4,15.4,新北市,6,汐止區,14,2021/12/12 5:00,2021/12/12
21.995386,120.853619,21.99357778,120.8616333,佳樂水,C0R680,2021/12/12 0:00,13,32,2.4,21.1,0.88,1018.7,2.5,,,25.6,21.1,屏東縣,20,滿州鄉,348,2021/12/12 0:00,2021/12/12
23.564311,119.460328,23.5626,119.4684361,西嶼,C0W120,2021/12/12 2:00,58,26,6.7,20.6,0.86,1013.3,0,13.6,12,20.8,20.6,澎湖縣,23,西嶼鄉,200,2021/12/12 2:00,2021/12/12
22.131817,120.784589,22.13003611,120.7926389,牡丹,C0R340,2021/12/12 10:00,230,21,1.8,22.2,0.78,993.8,0,,,22.6,18.3,屏東縣,20,牡丹鄉,347,2021/12/12 10:00,2021/12/12
24.899444,121.206389,24.89750278,121.2146361,平鎮,C0C650,2021/12/12 19:00,208,72,1.9,16.5,0.9,998.9,0.5,,,19.3,16.5,桃園市,8,平鎮區,55,2021/12/12 19:00,2021/12/12
23.326389,120.573611,23.32436111,120.5820167,馬頭山,C0M410,2021/12/12 4:00,245,344,1.5,14.8,0.95,986.2,0,,,16.9,14.8,嘉義縣,17,大埔鄉,233,2021/12/12 4:00,2021/12/12
22.762444,120.25925,22.76055833,120.2672111,梓官,C0V610,2021/12/12 11:00,22,1,2,23.5,0.71,1018.8,0,,,23.5,17.1,高雄市,5,梓官區,303,2021/12/12 11:00,2021/12/12
24.201583,120.8075,24.20017222,120.8158056,新社,C0F9V0,2021/12/12 8:00,525,71,0.7,19.5,0.66,959.9,0,,,19.5,14.6,臺中市,2,新社區,119,2021/12/12 8:00,2021/12/12
22.856639,120.251361,22.85499722,120.2594389,路竹,C0V750,2021/12/12 16:00,50,344,2,26.3,0.61,1011.2,0,,,27.8,18.4,高雄市,5,路竹區,288,2021/12/12 16:00,2021/12/12
23.120611,120.35275,23.11884722,120.3608333,大內,C0O860,2021/12/12 10:00,38,332,1.3,21.1,0.99,1015.9,0,,,21.1,17.2,臺南市,4,大內區,252,2021/12/12 10:00,2021/12/12
22.026433,120.685536,22.02463333,120.69355,大坪頂,C0R730,2021/12/12 9:00,163,56,3,23.8,0.68,1002,0,8.3,59,23.8,19.8,屏東縣,20,恆春鎮,350,2021/12/12 9:00,2021/12/12
23.676692,120.244675,23.67495,120.2528,雲林東勢,C0K520,2021/12/12 12:00,10,10,4.1,23.4,0.71,1017.4,0,9.7,6,23.7,17.9,雲林縣,16,東勢鄉,192,2021/12/12 12:00,2021/12/12
23.387811,120.469225,23.38604722,120.4773306,鹿寮,C0X300,2021/12/12 9:00,70,145,0.4,20.5,0.82,1013,0,,,20.5,14.6,臺南市,4,白河區,228,2021/12/12 9:00,2021/12/12
22.900556,120.511111,22.89874167,120.5191528,美濃,C0V310,2021/12/12 17:00,46,307,2,25.2,0.53,1011,0,,,28.7,17.6,高雄市,5,美濃區,282,2021/12/12 17:00,2021/12/12
22.993514,120.285431,22.99175,120.293525,媽廟,C0O990,2021/12/12 15:00,18,313,1.6,27.1,0.56,1014,0,,,28,17.8,臺南市,4,歸仁區,271,2021/12/12 15:00,2021/12/12
22.972778,120.531778,22.97100278,120.5398528,月眉,C0V260,2021/12/12 14:00,126,242,2.6,28.7,0.47,1002.6,0,,,28.9,14.6,高雄市,5,杉林區,269,2021/12/12 14:00,2021/12/12
24.274222,120.650306,24.27248056,120.6583139,神岡,C0F9I0,2021/12/12 8:00,194,47,2.4,18.4,0.89,998.8,0,,,18.4,16.9,臺中市,2,神岡區,114,2021/12/12 8:00,2021/12/12
24.042972,120.429528,24.04128889,120.4376694,福興,C0G770,2021/12/12 18:00,15,28,2.1,20.1,0.75,1017.4,0,,,24,19.5,彰化縣,14,福興鄉,145,2021/12/12 18:00,2021/12/12
22.856639,120.251361,22.85499722,120.2594389,路竹,C0V750,2021/12/12 15:00,50,321,2.2,27.4,0.56,1011,0,,,27.8,18.4,高雄市,5,路竹區,288,2021/12/12 15:00,2021/12/12
23.104417,120.219972,23.10261389,120.2278389,安定,C0X150,2021/12/12 7:00,18,14,3.2,18.4,0.98,1020.1,0,,,18.7,18.4,臺南市,4,安定區,261,2021/12/12 7:00,2021/12/12
24.692389,121.009083,24.6905,121.0171889,峨眉,C0D430,2021/12/12 10:00,87,29,0.7,20.5,0.83,1011.4,0,,,21,15.7,新竹縣,10,峨眉鄉,83,2021/12/12 10:00,2021/12/12
23.525708,121.382086,23.5239,121.3902111,瑞穗,C0Z210,2021/12/12 7:00,126,0,0,16,0.99,1009,0,,,17.1,15.5,花蓮縣,21,瑞穗鄉,209,2021/12/12 7:00,2021/12/12
24.529611,121.510844,24.52781944,121.5190306,白嶺,C0UA30,2021/12/12 2:00,1397,135,0.8,10.5,1,866.8,0,,,10.7,10,宜蘭縣,7,大同鄉,81,2021/12/12 2:00,2021/12/12
24.736722,121.016769,24.73500556,121.0251917,寶山,C0D580,2021/12/12 12:00,120,0,0,20.8,0.89,1007.4,0,,,20.8,16.7,新竹縣,10,寶山鄉,76,2021/12/12 12:00,2021/12/12
24.712925,121.108733,24.71115833,121.1169333,橫山,C0D540,2021/12/12 13:00,227,46,1.8,18.8,0.9,995.7,0,,,21.6,14.1,新竹縣,10,橫山鄉,78,2021/12/12 13:00,2021/12/12
25.073953,121.372611,25.07218056,121.3808389,林口,C0AH50,2021/12/12 7:00,275,355,3.7,16.9,0.98,990.4,0,10.4,7,18.1,16.8,新北市,6,林口區,16,2021/12/12 7:00,2021/12/12
24.712925,121.108733,24.71115833,121.1169333,橫山,C0D540,2021/12/12 1:00,227,0,0,16,0.92,995.3,0,,,17.1,16,新竹縣,10,橫山鄉,78,2021/12/12 1:00,2021/12/12
24.217056,120.616239,24.21528056,120.62445,大雅(中科園區),C0F9X0,2021/12/12 0:00,166,24,2.4,18.4,0.94,1000.4,0,,,22.7,17.9,臺中市,2,大雅區,121,2021/12/12 0:00,2021/12/12
24.529611,121.510844,24.52781944,121.5190306,白嶺,C0UA30,2021/12/12 6:00,1397,0,0.2,9.8,0.99,867.7,0,,,10.7,9.8,宜蘭縣,7,大同鄉,81,2021/12/12 6:00,2021/12/12
24.182028,120.632861,24.17949444,120.641275,西屯,C0F9T0,2021/12/12 4:00,111,339,1,18.2,0.95,1005.1,0,,,19.5,18.2,臺中市,2,西屯區,125,2021/12/12 4:00,2021/12/12
23.58975,121.370389,23.58764167,121.378225,富源,C0Z080,2021/12/12 7:00,298,213,0.4,16.6,0.97,988.8,0,,,17.3,16,花蓮縣,21,光復鄉,194,2021/12/12 7:00,2021/12/12
24.138861,120.630111,24.13700556,120.6379694,南屯,C0F9U0,2021/12/12 3:00,74,43,2.2,19.5,0.83,1011.7,0,,,20.1,19.5,臺中市,2,南屯區,129,2021/12/12 3:00,2021/12/12
22.509583,120.386556,22.50774722,120.3945111,林園,C0V720,2021/12/12 12:00,15,7,0.8,26.8,0.49,1016.8,0,,,26.8,19.1,高雄市,5,林園區,335,2021/12/12 12:00,2021/12/12
23.903417,120.501389,23.90166944,120.5093889,田尾,C0G820,2021/12/12 9:00,29,30,0.6,20.3,0.86,1019.1,0,,,20.3,16.3,彰化縣,14,田尾鄉,167,2021/12/12 9:00,2021/12/12
24.439167,121.373333,24.43741944,121.3816694,南山,C0U720,2021/12/12 0:00,1260,229,1,11.3,0.96,894.9,0,,,18.3,9.1,宜蘭縣,7,大同鄉,81,2021/12/12 0:00,2021/12/12
23.063556,120.290417,23.06161389,120.2981972,新市,C0O980,2021/12/12 12:00,18,351,0.9,25.7,0.52,1017.7,0,,,25.7,17.7,臺南市,4,新市區,263,2021/12/12 12:00,2021/12/12
23.897056,121.541694,23.89525,121.5498333,東華,C0Z100,2021/12/12 2:00,36,0,0,17.3,0.99,1016.6,0,,,17.8,17.3,花蓮縣,21,壽豐鄉,161,2021/12/12 2:00,2021/12/12
24.564417,120.740278,24.56294722,120.7485,西湖,C0E810,2021/12/12 9:00,53,16,3.4,19.5,0.99,1017.1,0,,,19.5,18.5,苗栗縣,11,西湖鄉,97,2021/12/12 9:00,2021/12/12
24.692389,121.009083,24.6905,121.0171889,峨眉,C0D430,2021/12/12 8:00,87,0,0,18.3,0.85,1011.3,0,,,18.3,15.7,新竹縣,10,峨眉鄉,83,2021/12/12 8:00,2021/12/12
23.495833,120.691111,23.49390278,120.6992528,奮起湖,C0M530,2021/12/12 0:00,1385,78,0.8,11.7,0.92,873.5,0,,,18.5,9.1,嘉義縣,17,竹崎鄉,215,2021/12/12 0:00,2021/12/12
24.459339,118.320831,24.45770278,118.3289889,金寧,C0W150,2021/12/12 18:00,42,63,7.2,18.5,0.7,1017.2,0,14.3,66,22.9,16.8,金門縣,99,金寧鄉,999,2021/12/12 18:00,2021/12/12
24.974944,121.436917,24.97320833,121.4451694,土城,C0AD40,2021/12/12 15:00,32,83,1.1,18.1,0.96,1017.8,0,,,20.5,16.7,新北市,6,土城區,49,2021/12/12 15:00,2021/12/12
23.676692,120.244675,23.67495,120.2528,雲林東勢,C0K520,2021/12/12 17:00,10,23,4.3,20.1,0.78,1016.3,0,12.3,13,23.7,17.9,雲林縣,16,東勢鄉,192,2021/12/12 17:00,2021/12/12
22.976119,121.148625,22.97436111,121.1566972,瑞和,C0SA40,2021/12/12 0:00,200,0,0,16.4,0.95,998.3,0,,,25.6,12.1,臺東縣,22,鹿野鄉,274,2021/12/12 0:00,2021/12/12
24.039567,120.846925,24.03780278,120.8550722,國姓,C0I420,2021/12/12 17:00,305,209,1.7,22.1,0.68,982.7,0,,,26.6,12.9,南投縣,13,國姓鄉,139,2021/12/12 17:00,2021/12/12
25.177333,121.514167,25.175675,121.5224083,大屯山,C0AC40,2021/12/12 8:00,1079,0,0.2,13.7,0.99,901.3,7,,,13.7,12.8,臺北市,1,北投區,6,2021/12/12 8:00,2021/12/12
24.308961,121.761903,24.30716944,121.7700694,和平,C0Z230,2021/12/12 3:00,31,313,6.7,19.8,0.82,1017.5,0,,,20.4,19.7,花蓮縣,21,秀林鄉,108,2021/12/12 3:00,2021/12/12
22.54,120.958889,22.53812222,120.966875,金崙,C0S790,2021/12/12 8:00,236,33,1.3,20.7,0.76,996.8,0,,,21.5,18.4,臺東縣,22,太麻里鄉,312,2021/12/12 8:00,2021/12/12
23.680772,120.387436,23.67901944,120.3955611,土庫,C0K390,2021/12/12 14:00,31,14,4.6,24.3,0.66,1014.2,0,,,25.1,16.6,雲林縣,16,土庫鎮,189,2021/12/12 14:00,2021/12/12
22.405861,120.745083,22.40526389,120.7531806,大漢山,C0R440,2021/12/12 5:00,1679,47,3.5,11.9,0.88,838.3,0,,,12.5,11,屏東縣,20,春日鄉,343,2021/12/12 5:00,2021/12/12
24.017222,120.613056,24.01567778,120.6213,芬園,C0G620,2021/12/12 3:00,110,274,1.2,15.9,1,1006.3,0,,,16.5,15.7,彰化縣,14,芬園鄉,148,2021/12/12 3:00,2021/12/12
22.170192,120.8332,22.16838889,120.841225,牡丹池山,C0R840,2021/12/12 16:00,536,50,4.5,19.3,0.96,957.2,0.5,,,21.2,16.6,屏東縣,20,牡丹鄉,347,2021/12/12 16:00,2021/12/12
24.710833,120.880833,24.70897778,120.8888972,竹南,C0E420,2021/12/12 0:00,19,26,1.6,20,0.89,1016.6,0,,,23,15.6,苗栗縣,11,竹南鎮,79,2021/12/12 0:00,2021/12/12
23.899417,120.578083,23.89764722,120.5862,社頭,C0G860,2021/12/12 19:00,45,350,2.2,19.1,0.83,1013.5,0,,,26.8,17,彰化縣,14,社頭鄉,163,2021/12/12 19:00,2021/12/12
24.736722,121.016769,24.73500556,121.0251917,寶山,C0D580,2021/12/12 16:00,120,0,0,17.9,0.95,1006.9,0,,,21.2,16.7,新竹縣,10,寶山鄉,76,2021/12/12 16:00,2021/12/12
23.2321,120.174072,23.23034722,120.1821667,學甲,C0X220,2021/12/12 13:00,26,351,3.9,23.7,0.66,1015.4,0,,,24.2,17.1,臺南市,4,學甲區,239,2021/12/12 13:00,2021/12/12
23.739206,120.409817,23.73745556,120.4179444,高鐵雲林,C0K580,2021/12/12 8:00,26,0,0,,0.99,1019,0,,,18.4,15.8,雲林縣,16,虎尾鎮,190,2021/12/12 8:00,2021/12/12
24.51265,121.599858,24.51085556,121.6080444,翠峰湖,C0U960,2021/12/12 19:00,1885,9,2.3,7.8,1,820,8,,,15.4,6,宜蘭縣,7,大同鄉,81,2021/12/12 19:00,2021/12/12
24.076944,120.422222,24.0753,120.4304806,鹿港,C0G640,2021/12/12 3:00,17,23,2.4,19,0.99,1018.4,0,,,19.4,18.9,彰化縣,14,鹿港鎮,140,2021/12/12 3:00,2021/12/12
22.58995,120.656922,22.58819444,120.6649444,舊泰武,C0R600,2021/12/12 0:00,766,0,0.1,18.2,0.83,932.8,0,,,22.4,16.6,屏東縣,20,泰武鄉,318,2021/12/12 0:00,2021/12/12
23.149036,120.078164,23.14728889,120.0862528,七股,C0X310,2021/12/12 3:00,9,30,4.7,19.8,1,1019,0,,,19.9,19.6,臺南市,4,七股區,253,2021/12/12 3:00,2021/12/12
22.805944,120.347444,22.80419444,120.3555278,阿公店,C0V400,2021/12/12 17:00,56,356,3.9,24.1,0.72,1010.3,0,,,27.2,17.7,高雄市,5,燕巢區,296,2021/12/12 17:00,2021/12/12
23.387811,120.469225,23.38604722,120.4773306,鹿寮,C0X300,2021/12/12 1:00,70,45,1,16.1,0.98,1011.3,0,,,16.3,16,臺南市,4,白河區,228,2021/12/12 1:00,2021/12/12
24.930528,121.275,24.92870833,121.2832889,八德,C0C490,2021/12/12 13:00,157,29,2.8,18.6,0.85,1002.9,0,7.9,29,19.9,17.2,桃園市,8,八德區,52,2021/12/12 13:00,2021/12/12
25.004489,121.620106,25.00270278,121.6283278,深坑,C0AH80,2021/12/12 19:00,68,83,1.5,17.2,0.9,1015.2,0,7.1,75,20.1,16.1,新北市,6,深坑區,44,2021/12/12 19:00,2021/12/12
23.270336,121.297364,23.26852778,121.3054694,東里,C0Z300,2021/12/12 0:00,182,0,0,17.3,0.94,1001.5,0,,,24.4,13.7,花蓮縣,21,富里鄉,241,2021/12/12 0:00,2021/12/12
22.961306,120.361194,22.95954722,120.3693167,崎頂,C0O960,2021/12/12 16:00,112,323,1.3,25.3,0.72,1003.1,0,,,27,17.5,臺南市,4,龍崎區,273,2021/12/12 16:00,2021/12/12
23.173442,121.241286,23.17163889,121.2493778,富里,C0T9N0,2021/12/12 0:00,261,61,0.3,17.2,0.96,991.7,0,,,24.5,12.3,花蓮縣,21,富里鄉,241,2021/12/12 0:00,2021/12/12
23.114444,120.289444,23.11288333,120.2972194,善化,C0O900,2021/12/12 6:00,9,25,1.7,18.1,0.98,1019,0,,,18.4,17.8,臺南市,4,善化區,255,2021/12/12 6:00,2021/12/12
24.042972,120.429528,24.04128889,120.4376694,福興,C0G770,2021/12/12 4:00,15,30,1.1,19.8,0.9,1017.6,0,,,20.3,19.8,彰化縣,14,福興鄉,145,2021/12/12 4:00,2021/12/12
22.762444,120.25925,22.76055833,120.2672111,梓官,C0V610,2021/12/12 10:00,22,25,1.6,21.2,0.8,1019.4,0,,,21.2,17.1,高雄市,5,梓官區,303,2021/12/12 10:00,2021/12/12
23.225581,121.398542,23.22377222,121.4066389,石寧山,C0S940,2021/12/12 0:00,150,129,0.5,20.3,0.93,1003.7,0,,,26.8,19.2,臺東縣,22,長濱鄉,227,2021/12/12 0:00,2021/12/12
24.894711,121.316761,24.89293611,121.324975,大溪永福,C0C710,2021/12/12 2:00,143,0,0.2,14.7,0.99,1004.9,0,,,15.1,14.7,桃園市,8,大溪區,60,2021/12/12 2:00,2021/12/12
25.092031,121.494792,25.09025278,121.5030194,士林,C0A9E0,2021/12/12 19:00,26,154,1.4,18.5,0.81,1021.4,6,,,21.8,18.4,臺北市,1,士林區,7,2021/12/12 19:00,2021/12/12
24.712925,121.108733,24.71115833,121.1169333,橫山,C0D540,2021/12/12 10:00,227,51,0.9,18.9,0.89,997.4,0,,,18.9,14.1,新竹縣,10,橫山鄉,78,2021/12/12 10:00,2021/12/12
24.792836,121.666839,24.79104167,121.6750472,大礁溪,C0U870,2021/12/12 13:00,474,0,0.1,19.6,0.99,966.8,0,,,22.3,17.3,宜蘭縣,7,礁溪鄉,65,2021/12/12 13:00,2021/12/12
23.747917,121.445278,23.74611389,121.4534111,鳳林,C0Z160,2021/12/12 4:00,124,0,0,17.4,0.99,1007.8,0,,,18.4,17.3,花蓮縣,21,鳳林鎮,184,2021/12/12 4:00,2021/12/12
22.072925,120.756094,22.07112222,120.7641111,保力,C0R770,2021/12/12 12:00,93,78,2.6,25.2,0.63,1008.5,0.5,,,25.2,19.8,屏東縣,20,車城鄉,349,2021/12/12 12:00,2021/12/12
24.528722,121.107917,24.52697222,121.11605,雪霸,C0D550,2021/12/12 6:00,1956,0,0,7.3,0.64,816.3,0,,,9,7.3,新竹縣,10,五峰鄉,89,2021/12/12 6:00,2021/12/12
23.538014,120.1612,23.53626667,120.1693111,宜梧,C0K291,2021/12/12 11:00,8,353,4.5,22.9,0.74,1020.1,0,,,23,18.7,雲林縣,16,口湖鄉,201,2021/12/12 11:00,2021/12/12
25.073953,121.372611,25.07218056,121.3808389,林口,C0AH50,2021/12/12 12:00,275,5,3.8,17.2,0.98,990.4,0,9.9,1,18.1,16.8,新北市,6,林口區,16,2021/12/12 12:00,2021/12/12
24.035,121.173333,24.03331111,121.1818083,廬山,C0I010,2021/12/12 2:00,1562,60,0.6,10.7,0.57,852.6,0,,,11.4,10.5,南投縣,13,仁愛鄉,122,2021/12/12 2:00,2021/12/12
22.972778,120.531778,22.97100278,120.5398528,月眉,C0V260,2021/12/12 4:00,126,0,0,15.2,0.98,1004.3,0,,,16.8,15.2,高雄市,5,杉林區,269,2021/12/12 4:00,2021/12/12
25.234933,121.586997,25.23315278,121.5952361,三和,C0A930,2021/12/12 4:00,216,317,1.3,17.9,0.99,994.7,1,,,18.8,17.7,新北市,6,金山區,3,2021/12/12 4:00,2021/12/12
22.785583,120.238278,22.78380556,120.2463611,彌陀,C0V650,2021/12/12 14:00,28,318,4.8,24.9,0.75,1016.4,0,,,24.9,18.3,高雄市,5,彌陀區,298,2021/12/12 14:00,2021/12/12
25.284903,121.510814,25.28312778,121.5190583,白沙灣,C0AI20,2021/12/12 8:00,25,38,7.8,18.4,0.93,1019.8,1.5,,,19.7,18.1,新北市,6,石門區,1,2021/12/12 8:00,2021/12/12
24.976719,121.393789,24.97494444,121.4020083,山佳,C0A520,2021/12/12 10:00,48,51,2.5,21,0.82,1017.9,0,,,21,17.8,新北市,6,樹林區,46,2021/12/12 10:00,2021/12/12
25.049444,121.217778,25.04775,121.2259583,大園,C0C540,2021/12/12 2:00,46,42,2.5,18.9,0.92,1015,0,7.8,51,19.4,18.9,桃園市,8,大園區,19,2021/12/12 2:00,2021/12/12
23.729722,120.779167,23.72808056,120.7873472,鳳凰,C0I090,2021/12/12 11:00,910,13,1.1,20.8,0.51,919.4,0,,,20.8,15.4,南投縣,13,鹿谷鄉,183,2021/12/12 11:00,2021/12/12
24.149236,121.621542,24.14743333,121.6297028,富世,C0Z190,2021/12/12 8:00,62,299,3.7,20.9,0.57,1014.8,0,9,307,21.1,19.6,花蓮縣,21,秀林鄉,108,2021/12/12 8:00,2021/12/12
23.647817,120.4234,23.64606389,120.431525,大埤,C0K450,2021/12/12 0:00,35,16,3.2,17.7,0.96,1015,0,,,24.9,16.9,雲林縣,16,大埤鄉,199,2021/12/12 0:00,2021/12/12
24.105556,120.743333,24.10355556,120.7510611,中竹林,C0F9A0,2021/12/12 0:00,425,0,0,16.8,1,971.3,0,,,25,16.3,臺中市,2,太平區,130,2021/12/12 0:00,2021/12/12
24.800436,120.978742,24.79868056,120.9869417,新竹市東區,C0D660,2021/12/12 12:00,65,33,2.9,19.5,0.87,1014.4,0,8.4,36,20.2,18.7,新竹市,15,東區,70,2021/12/12 12:00,2021/12/12
23.472294,120.947853,23.47048889,120.9559944,玉山風口,C0I520,2021/12/12 11:00,3860,194,5,5.4,0.17,644.1,0,,,6,2,南投縣,13,信義鄉,175,2021/12/12 11:00,2021/12/12
23.081611,120.486944,23.07956111,120.4950083,北寮,C0O830,2021/12/12 8:00,127,284,0.6,15.9,0.99,1006.5,0,,,16.8,14.8,臺南市,4,南化區,244,2021/12/12 8:00,2021/12/12
24.995758,121.654639,24.99396944,121.6629167,石碇,C0A640,2021/12/12 2:00,241,0,0,16.4,0.99,994.4,0,,,17,16.3,新北市,6,石碇區,40,2021/12/12 2:00,2021/12/12
24.439167,121.373333,24.43741944,121.3816694,南山,C0U720,2021/12/12 19:00,1260,33,1.5,12,1,895.7,1,,,18.9,9.3,宜蘭縣,7,大同鄉,81,2021/12/12 19:00,2021/12/12
23.937444,121.500806,23.93563889,121.5089444,鯉魚潭,C0T870,2021/12/12 17:00,135,204,1.6,20.3,0.99,1004.4,0,,,23.3,14.1,花蓮縣,21,壽豐鄉,161,2021/12/12 17:00,2021/12/12
23.101389,121.375261,23.099575,121.3833583,水試所成功,CM0140,2021/12/12 3:00,26,7,0.4,21.4,0.78,1018,0,,,22.2,21.4,臺東縣,22,成功鎮,258,2021/12/12 3:00,2021/12/12
24.603167,120.992083,24.601775,121.0002139,南庄,C0E430,2021/12/12 13:00,258,357,2.5,20.3,0.78,994,0,,,20.9,13.3,苗栗縣,11,南庄鄉,92,2021/12/12 13:00,2021/12/12
24.996081,119.441347,24.9944,119.4495556,烏坵,C0W160,2021/12/12 9:00,49,26,13.2,16.9,0.83,1014.9,0,,,17.1,16.6,金門縣,99,烏坵鄉,999,2021/12/12 9:00,2021/12/12
22.569219,120.951617,22.56741944,120.9596667,金崙山,C0SA20,2021/12/12 10:00,857,16,1.4,19,0.79,925.5,0,,,19,14.5,臺東縣,22,太麻里鄉,312,2021/12/12 10:00,2021/12/12
24.108833,120.615917,24.10705833,120.6241028,烏日,C0F9S0,2021/12/12 0:00,43,12,0.3,19.9,0.87,1015.7,0,,,25.5,18.6,臺中市,2,烏日區,137,2021/12/12 0:00,2021/12/12
25.059108,121.4924,25.05737778,121.500625,三重,C0AI30,2021/12/12 4:00,26,189,0.8,20.1,0.86,1018.6,0,,,21.8,20,新北市,6,三重區,25,2021/12/12 4:00,2021/12/12
23.711022,121.411969,23.70921944,121.4201056,萬榮,C0Z200,2021/12/12 17:00,153,30,4.1,20.6,0.95,1004.7,1,,,23.8,16.4,花蓮縣,21,鳳林鎮,184,2021/12/12 17:00,2021/12/12
23.65605,120.551619,23.65429167,120.5597444,古坑,C0K490,2021/12/12 11:00,91,24,0.8,23.5,0.54,1009.8,0,,,23.5,14.6,雲林縣,16,古坑鄉,196,2021/12/12 11:00,2021/12/12
24.141081,120.435381,24.14335833,120.4435361,線西,C0G900,2021/12/12 4:00,20,23,3,20.3,0.93,1016.8,0,10.7,26,20.6,20.3,彰化縣,14,線西鄉,133,2021/12/12 4:00,2021/12/12
22.522769,120.883803,22.52096944,120.89185,歷坵,C0SA00,2021/12/12 19:00,466,281,0.7,18.6,0.92,966.9,0,,,23.9,15.9,臺東縣,22,太麻里鄉,312,2021/12/12 19:00,2021/12/12
22.464244,120.432703,22.46246667,120.4407444,東港,C0R640,2021/12/12 19:00,21,220,1.9,25,0.69,1017,0,,,26.8,19.2,屏東縣,20,東港鎮,339,2021/12/12 19:00,2021/12/12
23.175,120.136667,23.17303889,120.1450861,佳里,C0X080,2021/12/12 1:00,2,21,1.9,,0.97,1019.2,0,,,18.7,18.4,臺南市,4,佳里區,250,2021/12/12 1:00,2021/12/12
22.994972,120.144111,22.99316111,120.1521806,安平,C0X190,2021/12/12 2:00,10,18,3.3,19.1,0.89,1017.7,0,,,19.3,19.1,臺南市,4,安平區,276,2021/12/12 2:00,2021/12/12
23.555011,120.3376,23.55326111,120.3457194,新港,C0M790,2021/12/12 8:00,15,40,0.8,18.2,0.98,1018.4,0,,,18.3,16.2,嘉義縣,17,新港鄉,211,2021/12/12 8:00,2021/12/12
24.039567,120.846925,24.03780278,120.8550722,國姓,C0I420,2021/12/12 10:00,305,153,0.4,21.1,0.58,985.9,0,,,21.1,12.9,南投縣,13,國姓鄉,139,2021/12/12 10:00,2021/12/12
23.298339,120.377492,23.29658056,120.3855917,東河,C0X050,2021/12/12 5:00,25,82,0.7,16.5,0.97,1015.7,0,,,16.9,16.3,臺南市,4,東山區,236,2021/12/12 5:00,2021/12/12
24.996081,119.441347,24.9944,119.4495556,烏坵,C0W160,2021/12/12 19:00,49,37,19.8,16.9,0.85,1013.3,0,25.7,39,17.8,16.6,金門縣,99,烏坵鄉,999,2021/12/12 19:00,2021/12/12
23.993611,121.529167,23.99186111,121.5371694,水源,C0T9B0,2021/12/12 10:00,558,146,0.4,19.5,0.77,959.5,0,,,21.9,16.5,花蓮縣,21,秀林鄉,108,2021/12/12 10:00,2021/12/12
23.973944,120.944278,23.97216944,120.952425,埔里,C0H890,2021/12/12 8:00,440,0,0,14.1,0.91,970.7,0,,,15.1,12.1,南投縣,13,埔里鎮,147,2021/12/12 8:00,2021/12/12
24.940806,121.3615,24.939025,121.3697278,三峽,C0AC60,2021/12/12 6:00,55,0,0.1,17.7,0.92,1015.7,0,,,17.9,16.7,新北市,6,三峽區,57,2021/12/12 6:00,2021/12/12
24.023903,121.124056,24.02212222,121.1322056,仁愛,C0I390,2021/12/12 11:00,1184,108,0.6,20.2,0.45,892,0,,,20.2,8.8,南投縣,13,仁愛鄉,122,2021/12/12 11:00,2021/12/12
23.651544,120.306892,23.64979722,120.3150111,元長,C0K500,2021/12/12 11:00,12,17,2.9,23.7,0.62,1018.2,0,,,23.7,17.7,雲林縣,16,元長鄉,197,2021/12/12 11:00,2021/12/12
23.494611,120.2825,23.49286389,120.2906111,六腳,C0M740,2021/12/12 2:00,15,25,0.7,17.9,0.98,1016.8,0,,,18.3,17.9,嘉義縣,17,六腳鄉,214,2021/12/12 2:00,2021/12/12
23.120611,120.35275,23.11884722,120.3608333,大內,C0O860,2021/12/12 16:00,38,347,2.5,25.5,0.63,1011.9,0,,,27.2,17.2,臺南市,4,大內區,252,2021/12/12 16:00,2021/12/12
23.312447,120.308586,23.31068889,120.3166806,新營,C0X250,2021/12/12 18:00,33,355,3,20.4,0.75,1014.8,0,8.7,344,26.5,17.6,臺南市,4,新營區,235,2021/12/12 18:00,2021/12/12
22.884944,120.319528,22.88320833,120.3275083,阿蓮,C0V530,2021/12/12 4:00,34,22,1.5,18.3,0.99,1014.7,0,,,18.3,18.2,高雄市,5,阿蓮區,287,2021/12/12 4:00,2021/12/12
22.58995,120.656922,22.58819444,120.6649444,舊泰武,C0R600,2021/12/12 15:00,766,256,2.7,22.2,0.65,931,0,,,22.3,17,屏東縣,20,泰武鄉,318,2021/12/12 15:00,2021/12/12
22.590417,120.277889,22.5886,120.2859444,旗津,C0V500,2021/12/12 4:00,6,19,1.1,18.8,0.91,1017.5,0,,,20,18.4,高雄市,5,旗津區,329,2021/12/12 4:00,2021/12/12
22.780972,120.486528,22.77919444,120.4945889,里港,C0R590,2021/12/12 13:00,72,4,1.5,26.7,0.52,1010.1,0,,,26.7,16.8,屏東縣,20,里港鄉,295,2021/12/12 13:00,2021/12/12
23.853347,120.490944,23.85159722,120.4990833,溪州,C0G720,2021/12/12 14:00,50,5,4.4,24.1,0.67,1011.7,0,,,25,16.9,彰化縣,14,溪州鄉,174,2021/12/12 14:00,2021/12/12
25.096608,121.708897,25.09481944,121.7171278,七堵,C0B010,2021/12/12 6:00,38,48,0.8,18.9,1,1014.1,0,,,19.4,17.4,基隆市,3,七堵區,12,2021/12/12 6:00,2021/12/12
23.349228,120.406328,23.34746667,120.4144278,白河,C0X210,2021/12/12 2:00,38,58,1.3,17.7,1,1013,0,,,18,17.4,臺南市,4,白河區,228,2021/12/12 2:00,2021/12/12
23.574658,120.237839,23.57291111,120.2459556,水林,C0K510,2021/12/12 3:00,10,359,1.3,18,0.97,1017.3,0,,,18.5,18,雲林縣,16,水林鄉,204,2021/12/12 3:00,2021/12/12
23.798889,121.534167,23.79713056,121.5425139,水璉,C0T9F0,2021/12/12 15:00,251,0,0.2,20.9,0.85,990.5,0,,,25.7,18.4,花蓮縣,21,壽豐鄉,161,2021/12/12 15:00,2021/12/12
23.722303,120.532972,23.720575,120.5411167,斗六,C0K400,2021/12/12 0:00,65,31,1,17.6,0.95,1012.9,0,,,25.3,17,雲林縣,16,斗六市,355,2021/12/12 0:00,2021/12/12
24.507222,121.5175,24.50548611,121.5256556,太平山,C0U710,2021/12/12 0:00,1942,145,0.7,7.7,0.99,811.9,0,,,13.6,5.5,宜蘭縣,7,大同鄉,81,2021/12/12 0:00,2021/12/12
22.834889,120.675806,22.83311111,120.6838889,尾寮山,C0R100,2021/12/12 11:00,1006,60,0.5,17.9,0.5,908.9,0,,,18.5,13.1,屏東縣,20,三地門鄉,291,2021/12/12 11:00,2021/12/12
22.895,120.393889,22.89317778,120.4019472,古亭坑,C0V370,2021/12/12 10:00,74,0,0.1,21.9,0.73,1012.6,0,,,21.9,15.5,高雄市,5,田寮區,284,2021/12/12 10:00,2021/12/12
24.603167,120.992083,24.601775,121.0002139,南庄,C0E430,2021/12/12 7:00,258,0,0,13.5,0.91,995.6,0,,,16.1,13.3,苗栗縣,11,南庄鄉,92,2021/12/12 7:00,2021/12/12
23.455769,120.741403,23.45399444,120.7495167,達邦,C0M820,2021/12/12 0:00,980,0,0,14,0.8,911.4,0,,,20.5,10.4,嘉義縣,17,阿里山鄉,208,2021/12/12 0:00,2021/12/12
22.973611,121.298333,22.97267222,121.3039861,東河,C0S810,2021/12/12 12:00,65,39,1.1,24.3,0.77,1015.2,7.5,,,24.3,18,臺東縣,22,東河鄉,264,2021/12/12 12:00,2021/12/12
22.026433,120.685536,22.02463333,120.69355,大坪頂,C0R730,2021/12/12 18:00,163,54,1.9,21.7,0.81,1000.2,0,,,25.5,19.8,屏東縣,20,恆春鎮,350,2021/12/12 18:00,2021/12/12
23.722303,120.532972,23.720575,120.5411167,斗六,C0K400,2021/12/12 15:00,65,9,4.1,24.1,0.63,1010.4,0,,,26,15.8,雲林縣,16,斗六市,355,2021/12/12 15:00,2021/12/12
24.3704,121.365011,24.36861389,121.3731889,多加屯,C0UA20,2021/12/12 7:00,2619,0,0,3.2,0.5,741.3,0,,,5.8,2.9,宜蘭縣,7,大同鄉,81,2021/12/12 7:00,2021/12/12
23.882433,121.573839,23.88062778,121.5819806,大坑,C0T9E0,2021/12/12 2:00,415,0,0,16.9,0.89,973.3,0,,,17,16.7,花蓮縣,21,壽豐鄉,161,2021/12/12 2:00,2021/12/12
23.975444,120.672194,23.97367222,120.68085,草屯,C0H960,2021/12/12 5:00,120,181,0.6,16.7,1,1004.7,0,,,18.5,16.4,南投縣,13,草屯鎮,152,2021/12/12 5:00,2021/12/12
23.456944,121.486667,23.45516667,121.4950278,靜浦,C0T9M0,2021/12/12 14:00,92,19,0.9,24,0.74,1009.4,0.5,,,25.6,18.1,花蓮縣,21,豐濱鄉,188,2021/12/12 14:00,2021/12/12
22.798844,120.286889,22.79707778,120.2949583,岡山,C0V660,2021/12/12 2:00,25,10,1.9,18.1,1,1017,0,,,18.5,18.1,高雄市,5,岡山區,294,2021/12/12 2:00,2021/12/12
24.245,121.237667,24.24752222,121.2436694,梨山,C0F860,2021/12/12 9:00,2215,306,0.6,8.8,0.47,786.4,0,,,8.8,4,臺中市,2,和平區,104,2021/12/12 9:00,2021/12/12
24.308961,121.761903,24.30716944,121.7700694,和平,C0Z230,2021/12/12 13:00,31,29,4.6,22.7,0.81,1017.2,0,,,23.5,18.9,花蓮縣,21,秀林鄉,108,2021/12/12 13:00,2021/12/12
23.150164,120.625189,23.14840833,120.63325,小林,C0V820,2021/12/12 12:00,441,208,1.6,25.6,0.52,970.4,0,,,25.7,13.5,高雄市,5,甲仙區,251,2021/12/12 12:00,2021/12/12
24.822,121.344094,24.82020833,121.3522806,復興,C0C460,2021/12/12 0:00,482,0,0,13.5,0.95,966.8,0,,,22.8,13.5,桃園市,8,復興區,67,2021/12/12 0:00,2021/12/12
23.469722,121.365833,23.46811389,121.3740694,舞鶴,C0Z070,2021/12/12 15:00,247,19,1.6,22,0.72,990.7,0,,,22.9,16.1,花蓮縣,21,瑞穗鄉,209,2021/12/12 15:00,2021/12/12
24.592053,121.404039,24.59026944,121.4122278,鴛鴦湖,C0UA10,2021/12/12 3:00,1711,322,0.5,7,0.98,837.3,0,,,8.5,6.8,宜蘭縣,7,大同鄉,81,2021/12/12 3:00,2021/12/12
23.323306,121.331556,23.3215,121.3396556,玉里,C0Z061,2021/12/12 0:00,174,116,0.3,17.3,0.94,1004.4,0,,,25.1,13.5,花蓮縣,21,玉里鎮,221,2021/12/12 0:00,2021/12/12
25.039606,121.556372,25.03782222,121.5645972,信義,C0AC70,2021/12/12 8:00,71,0,0,19.4,0.87,1014.8,0,,,20.4,18.9,臺北市,1,信義區,38,2021/12/12 8:00,2021/12/12
23.948694,120.517611,23.94763333,120.5254556,埔心,C0G810,2021/12/12 12:00,26,359,2.2,24.8,0.56,1015.6,0,,,24.9,17.5,彰化縣,14,埔心鄉,158,2021/12/12 12:00,2021/12/12
23.813667,121.433194,23.8119,121.4414583,西林,C0T900,2021/12/12 11:00,160,121,1.3,22.3,0.62,1001.5,0,,,23.9,16.4,花蓮縣,21,萬榮鄉,166,2021/12/12 11:00,2021/12/12
25.004411,121.734572,25.00271944,121.7428917,火燒寮,C0A650,2021/12/12 19:00,287,38,1.2,15.4,1,990.9,0,,,18.9,13.5,新北市,6,平溪區,29,2021/12/12 19:00,2021/12/12
22.123631,120.828758,22.121825,120.8367806,高士,C0R830,2021/12/12 15:00,383,54,4.4,21.2,0.83,973.9,9,,,21.7,17.5,屏東縣,20,牡丹鄉,347,2021/12/12 15:00,2021/12/12
22.970111,120.249778,22.96825833,120.2576889,仁德,C0X160,2021/12/12 10:00,26,7,2.3,,0.94,1017.7,0,,,21.6,18.1,臺南市,4,仁德區,279,2021/12/12 10:00,2021/12/12
22.884944,120.319528,22.88320833,120.3275083,阿蓮,C0V530,2021/12/12 17:00,34,341,2.2,23.7,0.73,1012.9,0,,,27.5,17.8,高雄市,5,阿蓮區,287,2021/12/12 17:00,2021/12/12
24.953,121.33725,24.95153333,121.3462944,鶯歌,C0AD50,2021/12/12 2:00,84,0,0.2,17.3,0.95,1011.3,0,,,18.1,17.3,新北市,6,鶯歌區,54,2021/12/12 2:00,2021/12/12
24.277822,120.769478,24.27606111,120.7776444,石岡,C0F0B0,2021/12/12 10:00,311,33,2,20.8,0.67,986,0,,,20.8,13.4,臺中市,2,石岡區,116,2021/12/12 10:00,2021/12/12
22.131817,120.784589,22.13003611,120.7926389,牡丹,C0R340,2021/12/12 9:00,230,24,2,21.1,0.83,993.7,0,,,21.3,18.3,屏東縣,20,牡丹鄉,347,2021/12/12 9:00,2021/12/12
24.635528,121.7855,24.633725,121.7936972,冬山,C0U910,2021/12/12 5:00,17,0,0,18.5,0.94,1019,0,,,19.4,18.5,宜蘭縣,7,冬山鄉,87,2021/12/12 5:00,2021/12/12
24.940806,121.3615,24.939025,121.3697278,三峽,C0AC60,2021/12/12 17:00,55,87,0.5,17.7,0.98,1016.3,0,,,21.9,16.7,新北市,6,三峽區,57,2021/12/12 17:00,2021/12/12
24.592053,121.404039,24.59026944,121.4122278,鴛鴦湖,C0UA10,2021/12/12 1:00,1711,307,1.2,8.1,0.97,837.6,0,,,8.5,8,宜蘭縣,7,大同鄉,81,2021/12/12 1:00,2021/12/12
23.466408,120.546028,23.46464444,120.5541444,番路,C0M720,2021/12/12 6:00,225,0,0,15.4,0.99,993.9,0,,,17.1,15.4,嘉義縣,17,番路鄉,220,2021/12/12 6:00,2021/12/12
23.413075,120.300231,23.41132222,120.3083333,鹿草,C0M780,2021/12/12 6:00,30,,,,,,0,,,17.8,16.9,嘉義縣,17,鹿草鄉,226,2021/12/12 6:00,2021/12/12
23.2321,120.174072,23.23034722,120.1821667,學甲,C0X220,2021/12/12 15:00,26,349,4.9,22.9,0.66,1014.3,0,,,24.3,17.1,臺南市,4,學甲區,239,2021/12/12 15:00,2021/12/12
24.032075,120.541314,24.03032222,120.5494611,花壇,C0G910,2021/12/12 5:00,42,3,1.8,18.5,0.92,1013.5,0,,,19.4,18.5,彰化縣,14,花壇鄉,146,2021/12/12 5:00,2021/12/12
24.407236,120.741644,24.40547778,120.7498194,三義,C0E880,2021/12/12 2:00,507,64,3.1,15.1,1,960.8,0,,,15.2,15,苗栗縣,11,三義鄉,106,2021/12/12 2:00,2021/12/12
24.930528,121.275,24.92870833,121.2832889,八德,C0C490,2021/12/12 19:00,157,89,1.8,17.2,0.86,1004.9,0.5,,,19.9,17.1,桃園市,8,八德區,52,2021/12/12 19:00,2021/12/12
24.347444,120.579972,24.34506111,120.588025,大安,C0F9K0,2021/12/12 16:00,30,20,5.5,19.6,0.8,1014.4,0,12.3,26,21.8,18.8,臺中市,2,大安區,107,2021/12/12 16:00,2021/12/12
24.58525,120.877222,24.58348611,120.8854111,明德,C0E550,2021/12/12 7:00,84,82,1.3,16.8,0.84,1015.2,0,,,18.3,16.3,苗栗縣,11,頭屋鄉,94,2021/12/12 7:00,2021/12/12
23.370733,121.374825,23.36892778,121.3829306,赤柯山,C0Z290,2021/12/12 14:00,946,359,1,16.5,0.99,914.5,0.5,,,18.4,13.8,花蓮縣,21,玉里鎮,221,2021/12/12 14:00,2021/12/12
24.953,121.33725,24.95153333,121.3462944,鶯歌,C0AD50,2021/12/12 10:00,84,130,1.1,20.6,0.84,1013.9,0,,,20.6,16.9,新北市,6,鶯歌區,54,2021/12/12 10:00,2021/12/12
23.905067,120.367928,23.90331944,120.3760694,二林,C0G730,2021/12/12 6:00,27,10,2.5,18.1,0.95,1018.1,0,,,18.8,18,彰化縣,14,二林鎮,155,2021/12/12 6:00,2021/12/12
23.905067,120.367928,23.90331944,120.3760694,二林,C0G730,2021/12/12 11:00,27,358,4.5,22.6,0.74,1018.4,0,,,22.8,17.9,彰化縣,14,二林鎮,155,2021/12/12 11:00,2021/12/12
22.890389,120.475528,22.88861389,120.4835972,旗山,C0V740,2021/12/12 7:00,60,341,1.2,16.2,0.93,1014.7,0,,,18.3,15.8,高雄市,5,旗山區,283,2021/12/12 7:00,2021/12/12
23.127417,120.195083,23.12560833,120.2031083,西港,C0X140,2021/12/12 7:00,17,37,1,18.5,0.98,1019.2,0,,,19,18,臺南市,4,西港區,256,2021/12/12 7:00,2021/12/12
22.291944,120.881944,22.279725,120.8892083,南田,C0S840,2021/12/12 18:00,22,0,0,24.2,0.77,1018.5,1,,,26.1,19.1,臺東縣,22,達仁鄉,337,2021/12/12 18:00,2021/12/12
24.415731,121.775067,24.413925,121.7832472,樟樹山,C0UA60,2021/12/12 2:00,566,213,0.6,16.6,0.87,955.4,0,,,16.6,15.7,宜蘭縣,7,南澳鄉,93,2021/12/12 2:00,2021/12/12
25.081206,121.567222,25.07942222,121.57545,內湖,C0A9F0,2021/12/12 16:00,35,111,1.2,19,1,1018.7,7.5,6.6,76,21.6,19,臺北市,1,內湖區,21,2021/12/12 16:00,2021/12/12
23.288611,121.403889,23.28681667,121.411975,長濱,C0S830,2021/12/12 14:00,288,63,0.3,22.6,0.72,987.6,0,,,24,18.4,臺東縣,22,長濱鄉,227,2021/12/12 14:00,2021/12/12
25.004083,121.567528,25.00235,121.5757278,文山,C0AC80,2021/12/12 4:00,40,0,0,17.2,0.93,1015.9,0,,,17.9,17.2,臺北市,1,文山區,356,2021/12/12 4:00,2021/12/12
24.953,121.33725,24.95153333,121.3462944,鶯歌,C0AD50,2021/12/12 3:00,84,0,0,17.1,0.94,1011.4,0,,,18.1,17.1,新北市,6,鶯歌區,54,2021/12/12 3:00,2021/12/12
23.574658,120.237839,23.57291111,120.2459556,水林,C0K510,2021/12/12 19:00,10,10,3.5,18.9,0.79,1017.4,0,10.2,7,24.4,17.5,雲林縣,16,水林鄉,204,2021/12/12 19:00,2021/12/12
22.607389,120.387667,22.60561389,120.3957167,大寮,C0V730,2021/12/12 18:00,33,17,1.7,23.9,0.69,1013.8,0,,,27.2,17.8,高雄市,5,大寮區,320,2021/12/12 18:00,2021/12/12
22.026208,120.831875,22.02440278,120.8398917,滿州,C0R780,2021/12/12 12:00,72,29,5,23.7,0.71,1013,0.5,10.3,49,23.9,20.3,屏東縣,20,滿州鄉,348,2021/12/12 12:00,2021/12/12
23.691389,120.842778,23.68969444,120.8510361,信義,C0I080,2021/12/12 2:00,536,276,0.3,13.7,0.86,961.5,0,,,14.6,13.7,南投縣,13,信義鄉,175,2021/12/12 2:00,2021/12/12
22.890389,120.475528,22.88861389,120.4835972,旗山,C0V740,2021/12/12 9:00,60,316,1.4,17.9,0.92,1015.2,0,,,18.3,15.8,高雄市,5,旗山區,283,2021/12/12 9:00,2021/12/12
21.968561,120.802258,21.96675556,120.8102694,墾丁,C0R690,2021/12/12 18:00,248,37,1.8,19.9,0.96,989.5,8.5,,,24.6,18.3,屏東縣,20,恆春鎮,350,2021/12/12 18:00,2021/12/12
23.023139,120.339806,23.021375,120.3478778,虎頭埤,C0O970,2021/12/12 0:00,71,52,1.2,17.3,0.97,1010.9,0,,,27.5,15.9,臺南市,4,新化區,267,2021/12/12 0:00,2021/12/12
25.114861,121.792639,25.11316944,121.8011472,瑞芳,C0A660,2021/12/12 16:00,97,5,0.7,16.2,0.99,1010,50,6.6,13,18.3,16.1,新北市,6,瑞芳區,18,2021/12/12 16:00,2021/12/12
25.030231,121.378336,25.02845833,121.3865611,龜山,C0C680,2021/12/12 9:00,228,357,2.6,17.5,0.94,994.7,1,,,19.2,17,桃園市,8,龜山區,34,2021/12/12 9:00,2021/12/12
24.855031,121.822586,24.85323333,121.8307972,頭城,C0U860,2021/12/12 7:00,5,0,0,19.1,0.93,1021.3,0,,,19.8,18.5,宜蘭縣,7,頭城鎮,51,2021/12/12 7:00,2021/12/12
23.829972,120.793328,23.82820556,120.8014667,集集,C0I380,2021/12/12 13:00,258,277,2.1,26.2,0.4,987.9,0,,,26.2,17,南投縣,13,集集鎮,176,2021/12/12 13:00,2021/12/12
24.802436,121.805683,24.80063611,121.8138917,大福,C0U970,2021/12/12 0:00,7,227,0.5,20.3,0.91,1020.9,0.5,,,24.7,17.7,宜蘭縣,7,壯圍鄉,72,2021/12/12 0:00,2021/12/12
25.966883,119.9724,25.96519722,119.9806861,東莒,C0W110,2021/12/12 13:00,16,25,11.8,16.7,0.76,1022.1,0,,,17,16.3,連江縣,99,莒光鄉,999,2021/12/12 13:00,2021/12/12
23.225581,121.398542,23.22377222,121.4066389,石寧山,C0S940,2021/12/12 2:00,150,335,1,19.6,0.94,1002.9,0,,,20.2,19.6,臺東縣,22,長濱鄉,227,2021/12/12 2:00,2021/12/12
23.173442,121.241286,23.17163889,121.2493778,富里,C0T9N0,2021/12/12 17:00,261,25,1.5,21.3,0.78,990.1,0,,,23.4,15,花蓮縣,21,富里鄉,241,2021/12/12 17:00,2021/12/12
23.877003,120.566469,23.87524722,120.5746083,高鐵彰化,C0G760,2021/12/12 4:00,53,115,0.3,16.1,0.99,1014.7,0,,,16.9,16,彰化縣,14,田中鎮,170,2021/12/12 4:00,2021/12/12
23.879222,120.506528,23.87758611,120.5142222,北斗,C0G840,2021/12/12 11:00,32,357,0.5,24.1,0.61,1016.1,0,,,24.1,16.9,彰化縣,14,北斗鎮,171,2021/12/12 11:00,2021/12/12
22.456067,120.658178,22.454275,120.6662194,白鷺,C0R820,2021/12/12 5:00,588,0,0,17.6,0.79,953.2,0,,,17.8,17,屏東縣,20,來義鄉,331,2021/12/12 5:00,2021/12/12
24.3704,121.365011,24.36861389,121.3731889,多加屯,C0UA20,2021/12/12 10:00,2619,212,1.1,5.6,0.41,741.9,0,,,6.6,2.9,宜蘭縣,7,大同鄉,81,2021/12/12 10:00,2021/12/12
24.491528,120.782639,24.48968056,120.7908528,銅鑼,C0E780,2021/12/12 2:00,160,0,0,18.8,0.94,1001.4,0,,,19.6,18.8,苗栗縣,11,銅鑼鄉,100,2021/12/12 2:00,2021/12/12
24.819336,121.757397,24.81753889,121.7656083,礁溪,C0U600,2021/12/12 17:00,10,0,0.1,18.9,0.9,1020.6,0.5,,,24.4,18.5,宜蘭縣,7,礁溪鄉,65,2021/12/12 17:00,2021/12/12
22.131817,120.784589,22.13003611,120.7926389,牡丹,C0R340,2021/12/12 3:00,230,0,0,18.5,1,992.3,0,,,19.4,18.5,屏東縣,20,牡丹鄉,347,2021/12/12 3:00,2021/12/12
24.557164,121.794436,24.55536111,121.8026278,西帽山,C0UA50,2021/12/12 14:00,808,291,0.9,16,1,929.6,0,,,19.2,15.2,宜蘭縣,7,南澳鄉,93,2021/12/12 14:00,2021/12/12
24.680119,121.200361,24.67834722,121.2085583,梅花,C0D360,2021/12/12 15:00,523,0,0,15.8,0.94,959.8,0,,,20.2,10.9,新竹縣,10,尖石鄉,77,2021/12/12 15:00,2021/12/12
23.902453,120.704053,23.90068889,120.7121917,南投服務區,CM0160,2021/12/12 18:00,159,21,1.7,18.7,0.88,,0,,,28.2,13.6,南投縣,13,南投市,160,2021/12/12 18:00,2021/12/12
24.619833,120.94055,24.61806944,120.9485778,大河,C0E850,2021/12/12 11:00,104,10,2.1,20.6,0.79,1009.9,0,,,21.3,15.7,苗栗縣,11,三灣鄉,88,2021/12/12 11:00,2021/12/12
24.528722,121.107917,24.52697222,121.11605,雪霸,C0D550,2021/12/12 8:00,1956,285,0.3,10.5,0.39,817.2,0,,,10.5,7.3,新竹縣,10,五峰鄉,89,2021/12/12 8:00,2021/12/12
23.897478,120.933219,23.89570278,120.94135,魚池,C0I370,2021/12/12 5:00,671,175,0.3,12.2,0.99,944.7,0,,,14,12,南投縣,13,魚池鄉,164,2021/12/12 5:00,2021/12/12
25.119253,121.528939,25.11749444,121.5371694,天母,C0A9C0,2021/12/12 18:00,35,27,1,18.5,0.78,1019.3,16.5,6.1,32,22.3,18.5,臺北市,1,士林區,7,2021/12/12 18:00,2021/12/12
23.382611,120.159667,23.38086389,120.1677778,布袋,C0M750,2021/12/12 9:00,10,26,3.5,20.2,0.83,1020.1,0,,,20.2,18.1,嘉義縣,17,布袋鎮,225,2021/12/12 9:00,2021/12/12
22.456067,120.658178,22.454275,120.6662194,白鷺,C0R820,2021/12/12 7:00,588,0,0,17.2,0.94,954.4,0,,,17.8,16.7,屏東縣,20,來義鄉,331,2021/12/12 7:00,2021/12/12
24.274222,120.650306,24.27248056,120.6583139,神岡,C0F9I0,2021/12/12 13:00,194,8,3.5,22.6,0.7,996.7,0,,,23,16.9,臺中市,2,神岡區,114,2021/12/12 13:00,2021/12/12
22.702861,120.339667,22.70108333,120.3477222,仁武,C0V680,2021/12/12 2:00,40,2,1.3,18.8,0.94,1014.5,0,,,19.2,18.7,高雄市,5,仁武區,306,2021/12/12 2:00,2021/12/12
24.993403,121.483569,24.99162222,121.4917917,中和,C0AG80,2021/12/12 19:00,48,127,1.1,17.8,0.86,1017.8,0,,,20.6,17.7,新北市,6,中和區,48,2021/12/12 19:00,2021/12/12
22.291944,120.881944,22.279725,120.8892083,南田,C0S840,2021/12/12 11:00,22,0,0,26.1,0.65,1020,1,,,26.1,19.1,臺東縣,22,達仁鄉,337,2021/12/12 11:00,2021/12/12
25.177333,121.514167,25.175675,121.5224083,大屯山,C0AC40,2021/12/12 9:00,1079,30,0.6,13.8,0.99,901.6,10,,,13.8,12.8,臺北市,1,北投區,6,2021/12/12 9:00,2021/12/12
24.275269,120.939447,24.27350278,120.9476167,烏石坑,C0FA00,2021/12/12 1:00,983,118,1.1,13.6,0.79,910.8,0,,,14,13.6,臺中市,2,和平區,104,2021/12/12 1:00,2021/12/12
24.042972,120.429528,24.04128889,120.4376694,福興,C0G770,2021/12/12 17:00,15,24,2.1,20.7,0.73,1017.1,0,9.6,31,24,19.5,彰化縣,14,福興鄉,145,2021/12/12 17:00,2021/12/12
23.879222,120.506528,23.87758611,120.5142222,北斗,C0G840,2021/12/12 0:00,32,0,0,18.3,0.87,1015.4,0,,,25.5,17.3,彰化縣,14,北斗鎮,171,2021/12/12 0:00,2021/12/12
23.270336,121.297364,23.26852778,121.3054694,東里,C0Z300,2021/12/12 6:00,182,0,0,15.7,0.96,1002,0,,,17.8,15.7,花蓮縣,21,富里鄉,241,2021/12/12 6:00,2021/12/12
24.994256,121.315044,24.992425,121.3231722,桃園,C0C480,2021/12/12 17:00,105,124,0.8,17.9,0.81,1010.6,0,,,21.2,17.8,桃園市,8,桃園區,42,2021/12/12 17:00,2021/12/12
22.203367,120.697225,22.20156944,120.70525,獅子,C0R740,2021/12/12 2:00,58,88,3,22.7,0.66,1012.3,0,9.3,103,23.4,22.7,屏東縣,20,獅子鄉,344,2021/12/12 2:00,2021/12/12
22.785583,120.238278,22.78380556,120.2463611,彌陀,C0V650,2021/12/12 13:00,28,317,4.4,24.8,0.74,1017.6,0,,,24.9,18.3,高雄市,5,彌陀區,298,2021/12/12 13:00,2021/12/12
24.383461,121.412122,24.381675,121.4203,審馬陣A,C0F0D0,2021/12/12 3:00,3171,133,1.9,5.2,0.12,699.6,0,,,5.4,1.7,臺中市,2,和平區,104,2021/12/12 3:00,2021/12/12
23.525708,121.382086,23.5239,121.3902111,瑞穗,C0Z210,2021/12/12 0:00,126,0,0.2,16.9,0.99,1007.8,0,,,25.1,14.5,花蓮縣,21,瑞穗鄉,209,2021/12/12 0:00,2021/12/12
22.890339,120.656039,22.88855833,120.6641083,茂林蝶谷,CM0180,2021/12/12 16:00,313,0,0.2,25.1,0.51,983.3,0,,,27.5,15.8,高雄市,5,茂林區,278,2021/12/12 16:00,2021/12/12
22.890389,120.475528,22.88861389,120.4835972,旗山,C0V740,2021/12/12 16:00,60,305,1.6,27.2,0.49,1010.7,0,,,27.5,15.8,高雄市,5,旗山區,283,2021/12/12 16:00,2021/12/12
23.243628,120.633564,23.24185556,120.6416583,表湖,C0M850,2021/12/12 2:00,695,74,0.8,16.1,0.86,940,0,,,16.7,15.9,嘉義縣,17,大埔鄉,233,2021/12/12 2:00,2021/12/12
24.683636,121.741144,24.68183611,121.7493444,羅東,C0U940,2021/12/12 10:00,25,0,0.1,22.6,0.67,1020.8,0,,,22.6,17.9,宜蘭縣,7,羅東鎮,86,2021/12/12 10:00,2021/12/12
22.291944,120.881944,22.279725,120.8892083,南田,C0S840,2021/12/12 13:00,22,0,0,25.5,0.72,1018.2,1,,,26.1,19.1,臺東縣,22,達仁鄉,337,2021/12/12 13:00,2021/12/12
22.762444,120.25925,22.76055833,120.2672111,梓官,C0V610,2021/12/12 19:00,22,358,1.9,21.1,0.78,1017.2,0,,,24.9,17.1,高雄市,5,梓官區,303,2021/12/12 19:00,2021/12/12
24.994256,121.315044,24.992425,121.3231722,桃園,C0C480,2021/12/12 10:00,105,103,0.3,20.7,0.81,1011.1,0,,,20.7,18.1,桃園市,8,桃園區,42,2021/12/12 10:00,2021/12/12
23.370733,121.374825,23.36892778,121.3829306,赤柯山,C0Z290,2021/12/12 18:00,946,11,0.7,14.8,0.99,915.8,0.5,,,18.4,13.8,花蓮縣,21,玉里鎮,221,2021/12/12 18:00,2021/12/12
23.737072,121.411994,23.73526944,121.4201306,鳳林山,C0T9G0,2021/12/12 15:00,605,48,2,18.8,0.82,952.1,0,,,21,15.8,花蓮縣,21,鳳林鎮,184,2021/12/12 15:00,2021/12/12
22.721528,120.277917,22.71975,120.286,楠梓,C0V670,2021/12/12 5:00,20,5,2.5,18.7,0.99,1017.2,0,,,19.5,18.7,高雄市,5,楠梓區,305,2021/12/12 5:00,2021/12/12
24.669917,121.644819,24.66812222,121.6530167,三星,C0U890,2021/12/12 12:00,116,125,2.1,21.7,0.74,1009.2,0,,,22.1,18,宜蘭縣,7,三星鄉,84,2021/12/12 12:00,2021/12/12
22.206281,120.742964,22.20448056,120.7509889,丹路,C0R800,2021/12/12 5:00,131,130,2.6,21.5,0.75,1004.1,0,9.8,106,22.4,20.8,屏東縣,20,獅子鄉,344,2021/12/12 5:00,2021/12/12
24.453056,120.921944,24.45127222,120.9301917,馬都安,C0E610,2021/12/12 10:00,850,255,0.7,15,0.79,927,0,,,16.5,13.3,苗栗縣,11,泰安鄉,101,2021/12/12 10:00,2021/12/12
22.888889,120.236444,22.88713889,120.2445,湖內,C0V640,2021/12/12 7:00,35,37,3.2,18.3,0.99,1017.1,0,,,19.3,18.3,高雄市,5,湖內區,285,2021/12/12 7:00,2021/12/12
24.822,121.344094,24.82020833,121.3522806,復興,C0C460,2021/12/12 2:00,482,0,0,12.8,0.95,966.3,0,,,13.5,12.8,桃園市,8,復興區,67,2021/12/12 2:00,2021/12/12
23.905067,120.367928,23.90331944,120.3760694,二林,C0G730,2021/12/12 14:00,27,4,7.2,22.1,0.78,1015.9,0,,,23.4,17.9,彰化縣,14,二林鎮,155,2021/12/12 14:00,2021/12/12
22.607389,120.387667,22.60561389,120.3957167,大寮,C0V730,2021/12/12 19:00,33,322,2,22.6,0.74,1014.5,0,,,27.2,17.8,高雄市,5,大寮區,320,2021/12/12 19:00,2021/12/12
22.545194,120.4535,22.5434,120.4615583,新園,C0R560,2021/12/12 8:00,22,328,1.8,18.7,0.95,1019,0,,,19.9,18.1,屏東縣,20,新園鄉,333,2021/12/12 8:00,2021/12/12
24.2201,121.680972,24.21829444,121.6891417,清水斷崖,C0Z310,2021/12/12 3:00,59,12,1.3,18.9,0.99,1013.9,0,,,19.1,18.7,花蓮縣,21,秀林鄉,108,2021/12/12 3:00,2021/12/12
24.345722,121.648142,24.34392222,121.6563167,和平林道,C0Z220,2021/12/12 19:00,589,0,0.2,16.8,0.9,955.4,0,,,25.3,14.1,花蓮縣,21,秀林鄉,108,2021/12/12 19:00,2021/12/12
25.030231,121.378336,25.02845833,121.3865611,龜山,C0C680,2021/12/12 15:00,228,359,4.4,16.7,0.92,992.9,2.5,,,19.2,16.5,桃園市,8,龜山區,34,2021/12/12 15:00,2021/12/12
23.150164,120.625189,23.14840833,120.63325,小林,C0V820,2021/12/12 10:00,441,188,0.5,24,0.56,971.6,0,,,24,13.5,高雄市,5,甲仙區,251,2021/12/12 10:00,2021/12/12
25.096608,121.708897,25.09481944,121.7171278,七堵,C0B010,2021/12/12 4:00,38,82,1.6,19.3,1,1013.4,0,,,19.4,17.4,基隆市,3,七堵區,12,2021/12/12 4:00,2021/12/12
24.032075,120.541314,24.03032222,120.5494611,花壇,C0G910,2021/12/12 4:00,42,350,3.3,18.9,0.92,1013.2,0,,,19.4,18.7,彰化縣,14,花壇鄉,146,2021/12/12 4:00,2021/12/12
23.574658,120.237839,23.57291111,120.2459556,水林,C0K510,2021/12/12 8:00,10,12,1.8,18.7,0.94,1019.3,0,,,18.7,17.5,雲林縣,16,水林鄉,204,2021/12/12 8:00,2021/12/12
22.026433,120.685536,22.02463333,120.69355,大坪頂,C0R730,2021/12/12 4:00,163,62,3.2,20,0.88,1000.3,0,,,21.3,19.8,屏東縣,20,恆春鎮,350,2021/12/12 4:00,2021/12/12
22.961306,120.361194,22.95954722,120.3693167,崎頂,C0O960,2021/12/12 1:00,112,355,0.7,17.6,0.96,1005.6,0,,,17.8,17.6,臺南市,4,龍崎區,273,2021/12/12 1:00,2021/12/12
22.629111,120.290583,22.62742222,120.2988028,新興,C0V490,2021/12/12 3:00,20,1,2.2,19.9,0.87,1017.4,0,,,20.5,19.9,高雄市,5,新興區,324,2021/12/12 3:00,2021/12/12
22.536139,120.531972,22.53436111,120.54,潮州,C0R220,2021/12/12 16:00,23,252,0.8,27.8,0.48,1014.2,0,,,28.6,18.7,屏東縣,20,潮州鎮,332,2021/12/12 16:00,2021/12/12
24.141081,120.435381,24.14335833,120.4435361,線西,C0G900,2021/12/12 8:00,20,28,2.6,20.5,0.9,1018.8,0,11.1,27,20.6,19.9,彰化縣,14,線西鄉,133,2021/12/12 8:00,2021/12/12
24.039567,120.846925,24.03780278,120.8550722,國姓,C0I420,2021/12/12 14:00,305,210,3.4,26.2,0.48,982,0,,,26.6,12.9,南投縣,13,國姓鄉,139,2021/12/12 14:00,2021/12/12
22.956258,121.221844,22.95445278,121.2299222,七塊厝,C0S950,2021/12/12 4:00,415,235,1.2,17,0.94,972.2,0,,,17.7,16.8,臺東縣,22,東河鄉,264,2021/12/12 4:00,2021/12/12
25.096608,121.708897,25.09481944,121.7171278,七堵,C0B010,2021/12/12 14:00,38,21,3.5,17.7,1,1014.3,0,10.4,47,19.4,17.4,基隆市,3,七堵區,12,2021/12/12 14:00,2021/12/12
23.688211,120.595289,23.68645,120.6034167,棋山,C0K560,2021/12/12 7:00,117,0,0,14.3,0.94,1008,0,,,15.7,14.2,雲林縣,16,古坑鄉,196,2021/12/12 7:00,2021/12/12
22.421194,120.544222,22.41945556,120.552375,佳冬,C0R540,2021/12/12 8:00,17,10,2.2,19.3,0.87,1017.3,0,,,20.3,18.5,屏東縣,20,佳冬鄉,341,2021/12/12 8:00,2021/12/12
24.719928,121.679461,24.71813333,121.6876639,內城,C0U900,2021/12/12 11:00,63,84,1.9,22.7,0.75,1016.3,0,,,22.9,18.8,宜蘭縣,7,員山鄉,74,2021/12/12 11:00,2021/12/12
22.972778,120.531778,22.97100278,120.5398528,月眉,C0V260,2021/12/12 10:00,126,200,1.9,25.3,0.56,1006,0,,,25.3,14.6,高雄市,5,杉林區,269,2021/12/12 10:00,2021/12/12
23.597319,120.685342,23.59555,120.6934611,草嶺,C0K240,2021/12/12 2:00,1132,147,2,14.6,0.74,896.5,0,,,14.8,14.5,雲林縣,16,古坑鄉,196,2021/12/12 2:00,2021/12/12
22.686667,120.997583,22.68487222,121.0056444,知本,C0S700,2021/12/12 11:00,507,53,1.1,20.8,0.68,964.2,0,,,20.8,15.3,臺東縣,22,卑南鄉,289,2021/12/12 11:00,2021/12/12
22.798844,120.286889,22.79707778,120.2949583,岡山,C0V660,2021/12/12 19:00,25,360,2.7,21.5,0.74,1016.7,0,,,27.3,17.7,高雄市,5,岡山區,294,2021/12/12 19:00,2021/12/12
23.495833,120.691111,23.49390278,120.6992528,奮起湖,C0M530,2021/12/12 12:00,1385,199,1.4,20.3,0.62,873.4,0,,,20.3,10.3,嘉義縣,17,竹崎鄉,215,2021/12/12 12:00,2021/12/12
23.814322,120.841658,23.81255278,120.8497917,水里,C0I360,2021/12/12 13:00,300,287,3.8,25.1,0.42,982.9,0,,,25.1,15.1,南投縣,13,水里鄉,168,2021/12/12 13:00,2021/12/12
25.013028,121.499889,25.01125,121.5081111,永和,C0AH10,2021/12/12 2:00,30,231,0.4,20.1,0.83,1016.6,0,,,21.4,20.1,新北市,6,永和區,45,2021/12/12 2:00,2021/12/12
23.993611,121.529167,23.99186111,121.5371694,水源,C0T9B0,2021/12/12 14:00,558,0,0,19.8,0.71,956.9,0,,,21.9,16.5,花蓮縣,21,秀林鄉,108,2021/12/12 14:00,2021/12/12
23.413075,120.300231,23.41132222,120.3083333,鹿草,C0M780,2021/12/12 16:00,30,360,2.3,23.3,0.73,1014.6,0,7.4,18,26.5,16.9,嘉義縣,17,鹿草鄉,226,2021/12/12 16:00,2021/12/12
23.77455,120.400811,23.77279722,120.4089444,二崙,C0K440,2021/12/12 3:00,35,5,3.5,18,0.95,1015.3,0,,,18.3,17.8,雲林縣,16,二崙鄉,180,2021/12/12 3:00,2021/12/12
24.872436,120.969,24.87067778,120.9772111,新豐,C0D590,2021/12/12 11:00,143,46,3.2,18.6,1,1007.5,0,,,19.2,17.1,新竹縣,10,新豐鄉,58,2021/12/12 11:00,2021/12/12
23.903417,120.501389,23.90166944,120.5093889,田尾,C0G820,2021/12/12 5:00,29,0,0,16.8,0.99,1017.3,0,,,18,16.8,彰化縣,14,田尾鄉,167,2021/12/12 5:00,2021/12/12
24.4167,120.862694,24.41493889,120.8708722,大湖,C0E520,2021/12/12 12:00,320,293,1.8,23.6,0.65,984.5,0,,,23.6,11.6,苗栗縣,11,大湖鄉,103,2021/12/12 12:00,2021/12/12
22.546944,120.3845,22.54506389,120.3925917,鳳森,C0V450,2021/12/12 14:00,51,333,0.3,28,0.41,1010.1,0,,,28.7,18.1,高雄市,5,小港區,330,2021/12/12 14:00,2021/12/12
22.026433,120.685536,22.02463333,120.69355,大坪頂,C0R730,2021/12/12 10:00,163,64,3.8,22.9,0.72,1002,0,9.4,53,23.9,19.8,屏東縣,20,恆春鎮,350,2021/12/12 10:00,2021/12/12
24.736722,121.016769,24.73500556,121.0251917,寶山,C0D580,2021/12/12 9:00,120,0,0,18.6,1,1008.7,0,,,18.6,16.7,新竹縣,10,寶山鄉,76,2021/12/12 9:00,2021/12/12
21.923578,120.727792,21.92168889,120.7358167,貓鼻頭,C0R350,2021/12/12 3:00,35,37,3.4,21.8,0.83,1014.5,0,9.5,28,22.6,21.7,屏東縣,20,恆春鎮,350,2021/12/12 3:00,2021/12/12
23.150164,120.625189,23.14840833,120.63325,小林,C0V820,2021/12/12 6:00,441,22,0.4,14.5,0.9,971.3,0,,,18.1,13.5,高雄市,5,甲仙區,251,2021/12/12 6:00,2021/12/12
22.191928,120.684131,22.19013056,120.6921556,楓港,C0R670,2021/12/12 2:00,26,41,3.6,23.3,0.64,1016.3,0,9.1,80,23.9,23.3,屏東縣,20,枋山鄉,346,2021/12/12 2:00,2021/12/12
23.195028,120.307528,23.19321667,120.3154222,官田,C0X130,2021/12/12 11:00,27,33,1.4,23.6,0.84,1016.4,0,,,23.6,18,臺南市,4,官田區,248,2021/12/12 11:00,2021/12/12
