Lat,Lon,LatWGS84,LonWGS84,LocationName,StationID,ObsTime,ELEV,WDIR,WDSD,Temp,HUMD,PRES,H24R,H_FX,H_XD,D_TX,D_TN,City,CitySn,Town,TownSn,InfoTime,InfoDate
24.692389,121.009083,24.6905,121.0171889,峨眉,C0D430,2021/12/17 3:00,87,0,0,18.8,0.93,1006.8,0,,,19,15.8,新竹縣,10,峨眉鄉,83,2021/12/17 3:00,2021/12/17
22.203367,120.697225,22.20156944,120.70525,獅子,C0R740,2021/12/17 14:00,58,100,4.4,25.4,0.65,1008.3,0,11.5,112,26.6,21.2,屏東縣,20,獅子鄉,344,2021/12/17 14:00,2021/12/17
24.434519,121.295628,24.43273889,121.3038083,桃山A,C0F9Y0,2021/12/17 1:00,3313,74,1.2,2.3,0.55,687.7,0,,,3.3,2,臺中市,2,和平區,104,2021/12/17 1:00,2021/12/17
23.924,120.311861,23.92230278,120.320025,芳苑,C0G870,2021/12/17 9:00,12,15,3.8,21.9,0.75,1017.1,0,8.8,44,21.9,20.1,彰化縣,14,芳苑鄉,149,2021/12/17 9:00,2021/12/17
22.759583,120.297694,22.75780556,120.30575,橋頭,C0V760,2021/12/17 12:00,30,19,1.7,26,0.65,1012.9,0,,,26,19.2,高雄市,5,橋頭區,299,2021/12/17 12:00,2021/12/17
24.144778,121.264083,24.14344167,121.2725472,合歡山,C0H9C0,2021/12/17 11:00,3402,184,3,7.8,0.52,683.6,0,,,8.4,0.9,南投縣,13,仁愛鄉,122,2021/12/17 11:00,2021/12/17
23.401778,119.314667,23.40006944,119.3227611,花嶼,C0W130,2021/12/17 1:00,18,11,5.4,21.5,0.86,1013.9,0,11.5,347,21.6,21.4,澎湖縣,23,望安鄉,231,2021/12/17 1:00,2021/12/17
23.899417,120.578083,23.89764722,120.5862,社頭,C0G860,2021/12/17 9:00,45,23,2.5,22.2,0.79,1011.6,0,,,22.2,18.3,彰化縣,14,社頭鄉,163,2021/12/17 9:00,2021/12/17
22.828222,120.592722,22.82638889,120.6008056,高樹,C0R470,2021/12/17 5:00,103,345,0.4,17.6,0.94,1005.1,0,,,19.7,17.6,屏東縣,20,高樹鄉,290,2021/12/17 5:00,2021/12/17
22.961306,120.361194,22.95954722,120.3693167,崎頂,C0O960,2021/12/17 4:00,112,36,0.7,19.2,0.99,1002.3,0,,,19.2,18.2,臺南市,4,龍崎區,273,2021/12/17 4:00,2021/12/17
22.432667,120.502083,22.43083611,120.5099833,林邊,C0R530,2021/12/17 2:00,16,54,1,21.2,0.84,1013.1,0,,,21.9,21.1,屏東縣,20,林邊鄉,340,2021/12/17 2:00,2021/12/17
22.306856,120.634956,22.30506389,120.6429861,內獅,C0R810,2021/12/17 7:00,25,76,2.7,20.6,0.84,1014,0,,,21.4,20.1,屏東縣,20,獅子鄉,344,2021/12/17 7:00,2021/12/17
22.907694,120.68,22.90594444,120.6880556,萬山,C0V790,2021/12/17 12:00,410,223,3.7,24.2,0.73,968.6,0,,,24.6,16.6,高雄市,5,茂林區,278,2021/12/17 12:00,2021/12/17
24.268567,121.732861,24.26676111,121.7410306,和中,C0T9D0,2021/12/17 7:00,7,0,0,17.5,1,1018.4,0,,,17.9,16.9,花蓮縣,21,秀林鄉,108,2021/12/17 7:00,2021/12/17
24.819336,121.757397,24.81753889,121.7656083,礁溪,C0U600,2021/12/17 5:00,10,0,0.2,19.7,0.93,1017.4,0,,,21.6,18.4,宜蘭縣,7,礁溪鄉,65,2021/12/17 5:00,2021/12/17
25.081206,121.567222,25.07942222,121.57545,內湖,C0A9F0,2021/12/17 10:00,35,86,2.3,19.3,0.88,1018.7,0,11.5,71,20.8,19.2,臺北市,1,內湖區,21,2021/12/17 10:00,2021/12/17
24.365503,121.436489,24.36371389,121.4446667,南湖圈谷A,C0F0E0,2021/12/17 14:00,3557,353,4.2,3.3,0.74,664.5,0,13,348,9.1,-1.3,臺中市,2,和平區,104,2021/12/17 14:00,2021/12/17
23.813667,121.433194,23.8119,121.4414583,西林,C0T900,2021/12/17 15:00,160,109,1.8,17.4,0.81,998.7,0,,,22.5,16.8,花蓮縣,21,萬榮鄉,166,2021/12/17 15:00,2021/12/17
23.651544,120.306892,23.64979722,120.3150111,元長,C0K500,2021/12/17 6:00,12,15,3.4,19.6,0.85,1014.2,0,,,20.1,18.9,雲林縣,16,元長鄉,197,2021/12/17 6:00,2021/12/17
22.516639,120.498972,22.51478056,120.5069139,崁頂,C0R520,2021/12/17 10:00,18,84,0.6,24.2,0.72,1014.1,0,,,24.2,18.1,屏東縣,20,崁頂鄉,334,2021/12/17 10:00,2021/12/17
23.421475,120.380792,23.41971944,120.3888944,水上,C0M690,2021/12/17 11:00,33,360,2.9,23.9,0.65,1012.5,0,,,23.9,18.2,嘉義縣,17,水上鄉,223,2021/12/17 11:00,2021/12/17
24.762506,121.573147,24.76071667,121.58135,福山植物園,C0AH90,2021/12/17 13:00,660,0,0.1,14,0.94,948.6,0,,,15.8,12.5,新北市,6,烏來區,61,2021/12/17 13:00,2021/12/17
25.130925,121.568856,25.12914167,121.5770861,平等,C0AH40,2021/12/17 0:00,426,358,0.6,17.9,0.97,969.8,0,,,24.5,17.1,臺北市,1,士林區,7,2021/12/17 0:00,2021/12/17
24.383461,121.412122,24.381675,121.4203,審馬陣A,C0F0D0,2021/12/17 14:00,3171,160,3,8,0.6,697.4,0,,,10.4,0.5,臺中市,2,和平區,104,2021/12/17 14:00,2021/12/17
22.291944,120.881944,22.279725,120.8892083,南田,C0S840,2021/12/17 15:00,22,0,0,24.4,0.77,1015.8,0,,,26.8,19.2,臺東縣,22,達仁鄉,337,2021/12/17 15:00,2021/12/17
24.002167,120.423583,24.00039444,120.4316833,埔鹽,C0G800,2021/12/17 13:00,15,24,10.4,21.1,0.71,1013.9,0,19.3,38,22.4,19.7,彰化縣,14,埔鹽鄉,151,2021/12/17 13:00,2021/12/17
24.507222,121.5175,24.50548611,121.5256556,太平山,C0U710,2021/12/17 8:00,1942,0,0.2,8.3,0.99,811.6,0,,,9.1,7.1,宜蘭縣,7,大同鄉,81,2021/12/17 8:00,2021/12/17
24.383461,121.412122,24.381675,121.4203,審馬陣A,C0F0D0,2021/12/17 8:00,3171,145,3.7,4.6,0.59,699.3,0,,,4.6,0.5,臺中市,2,和平區,104,2021/12/17 8:00,2021/12/17
24.13355,121.287556,24.13176389,121.2957167,小奇萊,C0I530,2021/12/17 11:00,3014,204,3.5,9.4,0.5,703.5,0,,,9.4,2.1,南投縣,13,仁愛鄉,122,2021/12/17 11:00,2021/12/17
22.48,120.935278,22.478475,120.943325,大溪山,C0S770,2021/12/17 9:00,375,128,0.8,20.6,0.74,976.1,0,,,20.9,17.9,臺東縣,22,太麻里鄉,312,2021/12/17 9:00,2021/12/17
23.078333,120.136667,23.07669444,120.1448611,安南,C0O950,2021/12/17 12:00,4,343,4.1,25.2,0.77,1014.9,0,,,25.5,18.5,臺南市,4,安南區,265,2021/12/17 12:00,2021/12/17
24.894711,121.316761,24.89293611,121.324975,大溪永福,C0C710,2021/12/17 3:00,143,0,0,16.7,0.99,1002.7,0,,,18.2,16.7,桃園市,8,大溪區,60,2021/12/17 3:00,2021/12/17
23.421475,120.380792,23.41971944,120.3888944,水上,C0M690,2021/12/17 1:00,33,28,3.1,20,0.91,1012.4,0,,,20,19.7,嘉義縣,17,水上鄉,223,2021/12/17 1:00,2021/12/17
24.039567,120.846925,24.03780278,120.8550722,國姓,C0I420,2021/12/17 9:00,305,137,0.3,19.7,0.73,982.3,0,,,19.8,14.5,南投縣,13,國姓鄉,139,2021/12/17 9:00,2021/12/17
24.108833,120.615917,24.10705833,120.6241028,烏日,C0F9S0,2021/12/17 3:00,43,26,1.5,20.8,0.82,1012.2,0,,,20.8,20.3,臺中市,2,烏日區,137,2021/12/17 3:00,2021/12/17
24.953,121.33725,24.95153333,121.3462944,鶯歌,C0AD50,2021/12/17 7:00,84,14,2.3,19.3,0.84,1011.6,0,,,19.7,18.8,新北市,6,鶯歌區,54,2021/12/17 7:00,2021/12/17
23.224167,120.797778,23.22240278,120.8060889,復興,C0V210,2021/12/17 10:00,734,165,2,20.7,0.44,934.9,0,,,21.1,11,高雄市,5,桃源區,353,2021/12/17 10:00,2021/12/17
24.608056,120.775556,24.60648889,120.7839333,後龍,C0E540,2021/12/17 9:00,32,36,5.3,20.6,0.77,1016.7,0,11.4,26,20.9,20.1,苗栗縣,11,後龍鎮,91,2021/12/17 9:00,2021/12/17
21.968561,120.802258,21.96675556,120.8102694,墾丁,C0R690,2021/12/17 7:00,248,7,1.4,19.8,0.9,987.2,0,,,19.8,18.6,屏東縣,20,恆春鎮,350,2021/12/17 7:00,2021/12/17
23.80215,120.459253,23.8004,120.4673833,西螺,C0K420,2021/12/17 8:00,42,23,3.1,20.5,0.83,1012.1,0,,,20.5,18.4,雲林縣,16,西螺鎮,182,2021/12/17 8:00,2021/12/17
23.718408,120.183736,23.71666667,120.1916861,水試所臺西,CM0120,2021/12/17 11:00,4,18,9.6,20.9,0.73,1017.3,0,19.9,7,21.7,20.9,雲林縣,16,臺西鄉,187,2021/12/17 11:00,2021/12/17
23.516064,120.221625,23.51431944,120.2297361,蔦松,C0K550,2021/12/17 4:00,15,13,1.9,19.3,0.9,1014.6,0,,,20.2,19.3,雲林縣,16,水林鄉,204,2021/12/17 4:00,2021/12/17
24.609,120.817906,24.60725,120.8260944,高鐵苗栗,C0E870,2021/12/17 14:00,34,37,5,18,0.76,1016.9,0,12.2,38,20.3,17.7,苗栗縣,11,後龍鎮,91,2021/12/17 14:00,2021/12/17
22.759583,120.297694,22.75780556,120.30575,橋頭,C0V760,2021/12/17 7:00,30,46,2.1,19.3,0.99,1013.5,0,,,20.7,19.3,高雄市,5,橋頭區,299,2021/12/17 7:00,2021/12/17
23.975444,120.672194,23.97367222,120.68085,草屯,C0H960,2021/12/17 1:00,120,0,0.1,19.2,1,1002.5,0,,,19.5,19.2,南投縣,13,草屯鎮,152,2021/12/17 1:00,2021/12/17
22.973611,121.298333,22.97267222,121.3039861,東河,C0S810,2021/12/17 5:00,65,341,2.2,17.8,0.93,1011.7,0,,,19.2,17.6,臺東縣,22,東河鄉,264,2021/12/17 5:00,2021/12/17
24.996081,119.441347,24.9944,119.4495556,烏坵,C0W160,2021/12/17 15:00,49,41,22.1,15.9,0.72,1010.6,0,28.7,45,18.3,15.9,金門縣,99,烏坵鄉,999,2021/12/17 15:00,2021/12/17
22.207208,120.879586,22.20540278,120.8876139,旭海,C0R720,2021/12/17 9:00,214,12,7.2,22,0.76,993.5,0,,,22,20.8,屏東縣,20,牡丹鄉,347,2021/12/17 9:00,2021/12/17
24.850056,121.589639,24.84822222,121.5979917,桶後,C0A570,2021/12/17 8:00,360,0,0,16.6,0.97,980.4,0,,,16.9,15.9,新北市,6,烏來區,61,2021/12/17 8:00,2021/12/17
22.963028,120.180417,22.96118889,120.1883778,臺南市南區,C0X110,2021/12/17 3:00,20,36,2.6,20.5,0.87,1014.2,0,9.1,16,21.1,20.5,臺南市,4,南區,281,2021/12/17 3:00,2021/12/17
24.819336,121.757397,24.81753889,121.7656083,礁溪,C0U600,2021/12/17 7:00,10,0,0,19.4,0.97,1018.9,2,,,21.6,18.4,宜蘭縣,7,礁溪鄉,65,2021/12/17 7:00,2021/12/17
23.469722,121.365833,23.46811389,121.3740694,舞鶴,C0Z070,2021/12/17 15:00,247,351,4.8,17.2,0.94,990.5,0.5,,,22.8,16,花蓮縣,21,瑞穗鄉,209,2021/12/17 15:00,2021/12/17
24.2201,121.680972,24.21829444,121.6891417,清水斷崖,C0Z310,2021/12/17 13:00,59,305,3.2,21.7,0.85,1011.4,0,,,23.7,18.9,花蓮縣,21,秀林鄉,108,2021/12/17 13:00,2021/12/17
24.451153,121.802036,24.44934722,121.8102194,南澳,C0U770,2021/12/17 6:00,5,333,1.8,18.8,0.88,1018.1,0,,,18.9,17.9,宜蘭縣,7,南澳鄉,93,2021/12/17 6:00,2021/12/17
22.072925,120.756094,22.07112222,120.7641111,保力,C0R770,2021/12/17 9:00,93,82,2.5,23.6,0.7,1006.7,0,9,52,23.6,17.1,屏東縣,20,車城鄉,349,2021/12/17 9:00,2021/12/17
22.704053,121.074603,22.70224722,121.0826639,知本(水試所),C0SA60,2021/12/17 4:00,6,329,1,19.4,0.77,1016.6,0,,,19.8,18.9,臺東縣,22,臺東市,297,2021/12/17 4:00,2021/12/17
23.553497,120.420331,23.55174167,120.4284444,民雄,C0M760,2021/12/17 8:00,40,28,1.9,19.6,0.89,1012.5,0,,,20.3,18.2,嘉義縣,17,民雄鄉,213,2021/12/17 8:00,2021/12/17
23.58975,121.370389,23.58764167,121.378225,富源,C0Z080,2021/12/17 4:00,298,0,0,15.9,0.97,984.6,0,,,17.9,15.9,花蓮縣,21,光復鄉,194,2021/12/17 4:00,2021/12/17
23.739206,120.409817,23.73745556,120.4179444,高鐵雲林,C0K580,2021/12/17 0:00,26,349,1.5,20,0.99,1015.1,0,,,27,18.1,雲林縣,16,虎尾鎮,190,2021/12/17 0:00,2021/12/17
24.111019,121.318297,24.10923056,121.3264556,奇萊稜線A,C0I540,2021/12/17 0:00,3344,277,5.7,1.7,0.69,-99,0,,,8,1.4,南投縣,13,仁愛鄉,122,2021/12/17 0:00,2021/12/17
24.182028,120.632861,24.17949444,120.641275,西屯,C0F9T0,2021/12/17 4:00,111,357,1.7,19.8,0.9,1002.6,0,,,20,19.6,臺中市,2,西屯區,125,2021/12/17 4:00,2021/12/17
23.740156,121.531975,23.73835,121.5401083,蕃薯寮,C0Z270,2021/12/17 5:00,343,28,0.9,19,0.87,979.5,0,,,19.1,17.8,花蓮縣,21,壽豐鄉,161,2021/12/17 5:00,2021/12/17
22.369511,120.582611,22.36772222,120.5906472,枋寮,C0R660,2021/12/17 3:00,20,69,1.2,19.4,0.9,1013.8,0,,,20.7,19.3,屏東縣,20,枋寮鄉,358,2021/12/17 3:00,2021/12/17
24.390581,121.263286,24.38879167,121.268675,雪山東峰A,C0F9Z0,2021/12/17 5:00,3193,261,1.4,2.2,0.55,697.1,0,,,3.1,2.2,臺中市,2,和平區,104,2021/12/17 5:00,2021/12/17
22.890339,120.656039,22.88855833,120.6641083,茂林蝶谷,CM0180,2021/12/17 10:00,313,0,0.1,22.1,0.61,983.5,0,,,22.1,15.6,高雄市,5,茂林區,278,2021/12/17 10:00,2021/12/17
23.747917,121.445278,23.74611389,121.4534111,鳳林,C0Z160,2021/12/17 8:00,124,0,0,19.4,0.95,1006.9,0,,,19.5,16.1,花蓮縣,21,鳳林鎮,184,2021/12/17 8:00,2021/12/17
24.094389,120.692194,24.09246389,120.7013778,大里,C0F9N0,2021/12/17 3:00,75,93,0.3,18.7,0.93,1008.4,0,,,20.1,18.7,臺中市,2,大里區,141,2021/12/17 3:00,2021/12/17
23.401778,119.314667,23.40006944,119.3227611,花嶼,C0W130,2021/12/17 12:00,18,26,8.9,20.8,0.75,1015,0,18.9,20,22.6,20.8,澎湖縣,23,望安鄉,231,2021/12/17 12:00,2021/12/17
23.676692,120.244675,23.67495,120.2528,雲林東勢,C0K520,2021/12/17 5:00,10,21,2.6,19.9,0.89,1014.4,0,,,20.4,19.7,雲林縣,16,東勢鄉,192,2021/12/17 5:00,2021/12/17
23.798889,121.534167,23.79713056,121.5425139,水璉,C0T9F0,2021/12/17 7:00,251,0,0.1,18.2,0.99,990.6,0,,,19.1,18.2,花蓮縣,21,壽豐鄉,161,2021/12/17 7:00,2021/12/17
24.800111,121.165694,24.79822778,121.1739472,關西,C0D390,2021/12/17 5:00,146,255,0.3,18.8,0.92,1001,0,,,20,17.9,新竹縣,10,關西鎮,68,2021/12/17 5:00,2021/12/17
25.966883,119.9724,25.96519722,119.9806861,東莒,C0W110,2021/12/17 14:00,16,35,10,15.6,0.67,1021.4,0,19.2,26,17.2,15.6,連江縣,99,莒光鄉,999,2021/12/17 14:00,2021/12/17
23.899417,120.578083,23.89764722,120.5862,社頭,C0G860,2021/12/17 13:00,45,351,3.3,23.3,0.7,1010.1,0,9.4,328,24.4,18.3,彰化縣,14,社頭鄉,163,2021/12/17 13:00,2021/12/17
23.466408,120.546028,23.46464444,120.5541444,番路,C0M720,2021/12/17 2:00,225,338,1.3,17.4,0.99,990.5,0,,,18.1,17.4,嘉義縣,17,番路鄉,220,2021/12/17 2:00,2021/12/17
22.828222,120.592722,22.82638889,120.6008056,高樹,C0R470,2021/12/17 6:00,103,356,0.3,16.8,0.96,1005.3,0,,,19.7,16.6,屏東縣,20,高樹鄉,290,2021/12/17 6:00,2021/12/17
23.740156,121.531975,23.73835,121.5401083,蕃薯寮,C0Z270,2021/12/17 7:00,343,270,0.7,17.9,0.81,980.5,0,,,19.1,17.7,花蓮縣,21,壽豐鄉,161,2021/12/17 7:00,2021/12/17
25.117336,121.504825,25.11559722,121.5131389,石牌,C0AI40,2021/12/17 15:00,37,351,2.7,17.4,0.7,1018,0,11,353,20.8,17.4,臺北市,1,北投區,6,2021/12/17 15:00,2021/12/17
21.933481,120.830933,21.93167222,120.8389417,龍磐,C0R710,2021/12/17 14:00,117,49,10.5,24.3,0.78,1001.3,0,17.5,47,24.7,21.3,屏東縣,20,恆春鎮,350,2021/12/17 14:00,2021/12/17
24.017222,120.613056,24.01567778,120.6213,芬園,C0G620,2021/12/17 13:00,110,1,3.7,22.7,0.59,1003.1,0,10.4,11,24,15.7,彰化縣,14,芬園鄉,148,2021/12/17 13:00,2021/12/17
23.829972,120.793328,23.82820556,120.8014667,集集,C0I380,2021/12/17 12:00,258,254,2,24.9,0.55,985.5,0,,,25,16.4,南投縣,13,集集鎮,176,2021/12/17 12:00,2021/12/17
24.541028,120.911972,24.53913333,120.9200417,獅潭,C0E820,2021/12/17 11:00,220,32,6.3,16.6,0.8,994.4,0,12.8,24,18,14.3,苗栗縣,11,獅潭鄉,95,2021/12/17 11:00,2021/12/17
22.834889,120.675806,22.83311111,120.6838889,尾寮山,C0R100,2021/12/17 0:00,1006,253,0.7,14.9,0.88,905.4,0,,,22.7,13.5,屏東縣,20,三地門鄉,291,2021/12/17 0:00,2021/12/17
24.390375,121.228197,24.38859444,121.2363389,雪山圈谷A,C0F0A0,2021/12/17 7:00,3587,0,0,1.5,0.16,-99,0,,,3.4,-0.9,臺中市,2,和平區,104,2021/12/17 7:00,2021/12/17
24.439167,121.373333,24.43741944,121.3816694,南山,C0U720,2021/12/17 15:00,1260,15,2.2,11.4,1,893.3,0,,,15.9,11.4,宜蘭縣,7,大同鄉,81,2021/12/17 15:00,2021/12/17
22.610825,120.977275,22.60902222,120.9853278,太麻里,C0S690,2021/12/17 14:00,522,10,1.2,19.7,0.86,956.5,0,,,22,18.5,臺東縣,22,太麻里鄉,312,2021/12/17 14:00,2021/12/17
25.004083,121.567528,25.00235,121.5757278,文山,C0AC80,2021/12/17 8:00,40,77,2.5,19.2,0.84,1016.7,0,,,19.7,17.9,臺北市,1,文山區,356,2021/12/17 8:00,2021/12/17
23.012167,120.186333,23.01039444,120.1942278,臺南市北區,C0X100,2021/12/17 5:00,10,15,3.1,19.8,0.91,1013.1,0,,,20.5,19.8,臺南市,4,北區,357,2021/12/17 5:00,2021/12/17
24.51265,121.599858,24.51085556,121.6080444,翠峰湖,C0U960,2021/12/17 0:00,1885,3,2,5.1,1,817.7,0.5,,,18,4.9,宜蘭縣,7,大同鄉,81,2021/12/17 0:00,2021/12/17
23.323306,121.331556,23.3215,121.3396556,玉里,C0Z061,2021/12/17 14:00,174,325,1.8,22.6,0.67,1000.7,0,,,24.3,15.1,花蓮縣,21,玉里鎮,221,2021/12/17 14:00,2021/12/17
22.54,120.958889,22.53812222,120.966875,金崙,C0S790,2021/12/17 10:00,236,59,1.2,23.3,0.67,994.2,0,,,23.4,18.5,臺東縣,22,太麻里鄉,312,2021/12/17 10:00,2021/12/17
23.564311,119.460328,23.5626,119.4684361,西嶼,C0W120,2021/12/17 2:00,58,9,10.2,21.3,0.85,1010.4,0,,,21.3,20.7,澎湖縣,23,西嶼鄉,200,2021/12/17 2:00,2021/12/17
23.798889,121.534167,23.79713056,121.5425139,水璉,C0T9F0,2021/12/17 11:00,251,103,0.9,21.5,0.84,991.2,0,,,22.1,18.2,花蓮縣,21,壽豐鄉,161,2021/12/17 11:00,2021/12/17
23.323306,121.331556,23.3215,121.3396556,玉里,C0Z061,2021/12/17 1:00,174,0,0,15.9,0.97,1000.8,0,,,16.5,15.9,花蓮縣,21,玉里鎮,221,2021/12/17 1:00,2021/12/17
24.149236,121.621542,24.14743333,121.6297028,富世,C0Z190,2021/12/17 12:00,62,81,3.2,21.9,0.84,1011.5,0,11.4,120,22.9,18.3,花蓮縣,21,秀林鄉,108,2021/12/17 12:00,2021/12/17
24.473639,120.696444,24.47189167,120.7046222,通霄,C0E590,2021/12/17 12:00,40,34,3.2,19.5,0.68,1013.1,0,15.1,32,20.8,19.3,苗栗縣,11,通霄鎮,98,2021/12/17 12:00,2021/12/17
22.536139,120.531972,22.53436111,120.54,潮州,C0R220,2021/12/17 5:00,23,312,0.3,19.1,0.92,1013.4,0,,,21.2,19.1,屏東縣,20,潮州鎮,332,2021/12/17 5:00,2021/12/17
24.939975,121.701531,24.93818333,121.70975,坪林,C0A530,2021/12/17 8:00,300,46,2,15.8,0.99,986.6,0,,,16.2,15.4,新北市,6,坪林區,53,2021/12/17 8:00,2021/12/17
24.250283,120.895153,24.24851667,120.9033194,中坑,C0F0C0,2021/12/17 9:00,983,23,0.3,16.8,0.5,907.1,0,,,16.8,13.7,臺中市,2,和平區,104,2021/12/17 9:00,2021/12/17
22.610825,120.977275,22.60902222,120.9853278,太麻里,C0S690,2021/12/17 10:00,522,11,0.7,21,0.68,959.1,0,,,21.1,18.5,臺東縣,22,太麻里鄉,312,2021/12/17 10:00,2021/12/17
23.973944,120.944278,23.97216944,120.952425,埔里,C0H890,2021/12/17 13:00,440,296,1.8,26.1,0.45,963.7,0,,,26.5,14.1,南投縣,13,埔里鎮,147,2021/12/17 13:00,2021/12/17
23.023139,120.339806,23.021375,120.3478778,虎頭埤,C0O970,2021/12/17 3:00,71,4,1,19.2,0.97,1007.3,0,6.2,298,19.2,17.4,臺南市,4,新化區,267,2021/12/17 3:00,2021/12/17
24.688722,121.790222,24.68636944,121.7979444,五結,C0U780,2021/12/17 0:00,15,0,0,20.4,0.93,1016.4,0,,,27.1,17.8,宜蘭縣,7,五結鄉,82,2021/12/17 0:00,2021/12/17
23.555011,120.3376,23.55326111,120.3457194,新港,C0M790,2021/12/17 14:00,15,1,3.8,21.9,0.62,1012.7,0,10.8,16,23.7,18.6,嘉義縣,17,新港鄉,211,2021/12/17 14:00,2021/12/17
23.902453,120.704053,23.90068889,120.7121917,南投服務區,CM0160,2021/12/17 9:00,159,235,0.5,20.8,0.89,-99,0,,,20.8,15.9,南投縣,13,南投市,160,2021/12/17 9:00,2021/12/17
23.460653,120.145722,23.45891111,120.1538306,東石,C0M710,2021/12/17 3:00,15,15,4.5,20.5,0.9,1014.5,0,,,20.6,20.3,嘉義縣,17,東石鄉,216,2021/12/17 3:00,2021/12/17
24.976719,121.393789,24.97494444,121.4020083,山佳,C0A520,2021/12/17 9:00,48,24,1.3,19.5,0.81,1016.7,0,,,20.4,19.4,新北市,6,樹林區,46,2021/12/17 9:00,2021/12/17
22.888889,120.236444,22.88713889,120.2445,湖內,C0V640,2021/12/17 8:00,35,33,2.6,19.7,0.99,1013.4,0,,,20.5,19.3,高雄市,5,湖內區,285,2021/12/17 8:00,2021/12/17
24.566667,120.816444,24.56456944,120.824575,苗栗,C0E750,2021/12/17 2:00,62,77,0.9,19.7,0.9,1010,0,,,19.9,19.7,苗栗縣,11,苗栗市,96,2021/12/17 2:00,2021/12/17
22.170192,120.8332,22.16838889,120.841225,牡丹池山,C0R840,2021/12/17 3:00,536,41,3.1,18,1,955.3,0,,,18.1,17.8,屏東縣,20,牡丹鄉,347,2021/12/17 3:00,2021/12/17
22.828222,120.592722,22.82638889,120.6008056,高樹,C0R470,2021/12/17 1:00,103,1,1.3,19.3,0.86,1005.1,0,,,19.7,19.3,屏東縣,20,高樹鄉,290,2021/12/17 1:00,2021/12/17
22.884944,120.319528,22.88320833,120.3275083,阿蓮,C0V530,2021/12/17 11:00,34,356,1.5,24,0.71,1012.2,0,,,24,18.3,高雄市,5,阿蓮區,287,2021/12/17 11:00,2021/12/17
22.785583,120.238278,22.78380556,120.2463611,彌陀,C0V650,2021/12/17 3:00,28,33,4.2,20.1,0.91,1014.9,0,11.7,43,20.4,19.7,高雄市,5,彌陀區,298,2021/12/17 3:00,2021/12/17
23.195028,120.307528,23.19321667,120.3154222,官田,C0X130,2021/12/17 3:00,27,13,2.5,20.3,1,1011.7,0,7.9,46,20.4,19.8,臺南市,4,官田區,248,2021/12/17 3:00,2021/12/17
25.119253,121.528939,25.11749444,121.5371694,天母,C0A9C0,2021/12/17 6:00,35,346,1,20.5,0.75,1016.4,0,,,20.6,18.8,臺北市,1,士林區,7,2021/12/17 6:00,2021/12/17
23.58975,121.370389,23.58764167,121.378225,富源,C0Z080,2021/12/17 12:00,298,16,2.7,24.9,0.77,985.1,0,,,25.5,15.9,花蓮縣,21,光復鄉,194,2021/12/17 12:00,2021/12/17
22.078792,120.794419,22.07698889,120.8024389,四林格山,C0R750,2021/12/17 10:00,551,32,13.6,20.2,0.83,953.8,0,22.1,30,20.2,17.7,屏東縣,20,牡丹鄉,347,2021/12/17 10:00,2021/12/17
24.345722,121.648142,24.34392222,121.6563167,和平林道,C0Z220,2021/12/17 11:00,589,0,0.2,20.9,0.78,953.4,0,,,21.2,14.6,花蓮縣,21,秀林鄉,108,2021/12/17 11:00,2021/12/17
23.853347,120.490944,23.85159722,120.4990833,溪州,C0G720,2021/12/17 1:00,50,11,1.8,19.4,0.99,1011.1,0,,,20,19.4,彰化縣,14,溪州鄉,174,2021/12/17 1:00,2021/12/17
25.039606,121.556372,25.03782222,121.5645972,信義,C0AC70,2021/12/17 11:00,71,74,1.1,18.5,0.74,1014.4,0,,,20.5,18.5,臺北市,1,信義區,38,2021/12/17 11:00,2021/12/17
22.888889,120.236444,22.88713889,120.2445,湖內,C0V640,2021/12/17 9:00,35,34,3.2,20.8,0.89,1013.9,0,,,20.8,19.3,高雄市,5,湖內區,285,2021/12/17 9:00,2021/12/17
23.460653,120.145722,23.45891111,120.1538306,東石,C0M710,2021/12/17 12:00,15,12,6.8,21.7,0.7,1015.3,0,15.6,354,22.5,20,嘉義縣,17,東石鄉,216,2021/12/17 12:00,2021/12/17
22.607389,120.387667,22.60561389,120.3957167,大寮,C0V730,2021/12/17 9:00,33,5,1.5,21.1,0.82,1012.9,0,,,21.1,18.3,高雄市,5,大寮區,320,2021/12/17 9:00,2021/12/17
26.360539,120.475308,26.35883611,120.4836306,東引,C0W170,2021/12/17 1:00,42,33,6.5,17.6,1,1014.3,0,,,18.6,17.6,連江縣,99,東引鄉,999,2021/12/17 1:00,2021/12/17
25.05325,121.438528,25.05147778,121.4467556,新莊,C0ACA0,2021/12/17 12:00,25,47,1.1,17.9,0.78,1018.2,0,6.6,8,20.3,17.7,新北市,6,新莊區,33,2021/12/17 12:00,2021/12/17
23.371644,120.239936,23.36989167,120.2480472,東後寮,C0M520,2021/12/17 5:00,15,27,1.9,18.4,0.94,1013.9,0,,,20,18.4,嘉義縣,17,義竹鄉,229,2021/12/17 5:00,2021/12/17
22.744444,120.735556,22.74290833,120.7436778,阿禮,C0R130,2021/12/17 14:00,1040,263,0.8,24.1,0.43,897.7,0,,,25,15.9,屏東縣,20,霧臺鄉,292,2021/12/17 14:00,2021/12/17
22.702861,120.339667,22.70108333,120.3477222,仁武,C0V680,2021/12/17 13:00,40,0,0.1,27.9,0.59,1010.3,0,,,27.9,18.6,高雄市,5,仁武區,306,2021/12/17 13:00,2021/12/17
24.002167,120.423583,24.00039444,120.4316833,埔鹽,C0G800,2021/12/17 1:00,15,24,4,19.9,0.99,1015,0,,,20.3,19.9,彰化縣,14,埔鹽鄉,151,2021/12/17 1:00,2021/12/17
22.206281,120.742964,22.20448056,120.7509889,丹路,C0R800,2021/12/17 13:00,131,82,3.5,24.2,0.69,1000.6,0,12.3,41,25.8,18.9,屏東縣,20,獅子鄉,344,2021/12/17 13:00,2021/12/17
22.652556,120.519139,22.650775,120.5271917,麟洛,C0R570,2021/12/17 15:00,37,48,2.4,27.7,0.56,1008.4,0,,,27.9,17.8,屏東縣,20,麟洛鄉,317,2021/12/17 15:00,2021/12/17
23.879222,120.506528,23.87758611,120.5142222,北斗,C0G840,2021/12/17 6:00,32,11,0.7,18.7,0.83,1012.2,0,,,20.5,18.7,彰化縣,14,北斗鎮,171,2021/12/17 6:00,2021/12/17
23.081667,120.5825,23.08010556,120.5917583,甲仙,C0V250,2021/12/17 15:00,298,354,0.6,25.6,0.61,979.7,0,,,27.1,14.1,高雄市,5,甲仙區,251,2021/12/17 15:00,2021/12/17
24.274222,120.650306,24.27248056,120.6583139,神岡,C0F9I0,2021/12/17 11:00,194,15,3.5,19.7,0.76,995.6,0,12.7,11,20.5,17.9,臺中市,2,神岡區,114,2021/12/17 11:00,2021/12/17
23.647817,120.4234,23.64606389,120.431525,大埤,C0K450,2021/12/17 8:00,35,27,4.4,19.7,0.87,1012.2,0,,,19.7,18.3,雲林縣,16,大埤鄉,199,2021/12/17 8:00,2021/12/17
23.022142,121.315558,23.02033333,121.3236417,都歷,C0SA30,2021/12/17 11:00,92,29,4.7,23.8,0.74,1009.2,0,10.6,18,24.2,20.1,臺東縣,22,成功鎮,258,2021/12/17 11:00,2021/12/17
22.48,120.935278,22.478475,120.943325,大溪山,C0S770,2021/12/17 6:00,375,328,0.9,19.5,0.8,974.4,0,,,19.7,17.9,臺東縣,22,太麻里鄉,312,2021/12/17 6:00,2021/12/17
23.585708,121.506678,23.58389722,121.5148056,豐濱,C0T9I0,2021/12/17 11:00,152,36,5,22,0.74,1002.2,0,,,22.6,17.8,花蓮縣,21,豐濱鄉,188,2021/12/17 11:00,2021/12/17
24.076944,120.422222,24.0753,120.4304806,鹿港,C0G640,2021/12/17 1:00,17,24,2.8,20.1,0.98,1016.4,0,,,20.8,20.1,彰化縣,14,鹿港鎮,140,2021/12/17 1:00,2021/12/17
24.822,121.344094,24.82020833,121.3522806,復興,C0C460,2021/12/17 15:00,482,0,0,13.7,0.9,967,1,,,17,13.7,桃園市,8,復興區,67,2021/12/17 15:00,2021/12/17
24.002167,120.423583,24.00039444,120.4316833,埔鹽,C0G800,2021/12/17 6:00,15,21,5.2,19.8,0.99,1014.9,0,12.1,26,20.3,19.7,彰化縣,14,埔鹽鄉,151,2021/12/17 6:00,2021/12/17
23.602361,120.450281,23.60060556,120.4583972,大林,C0M670,2021/12/17 3:00,43,42,1.9,19.3,0.94,1010.9,0,,,20.2,19.3,嘉義縣,17,大林鎮,202,2021/12/17 3:00,2021/12/17
23.764722,120.677778,23.761225,120.6881556,竹山,C0I110,2021/12/17 11:00,161,72,1.2,24.2,0.61,997.6,0,,,24.2,16.6,南投縣,13,竹山鎮,178,2021/12/17 11:00,2021/12/17
23.114444,120.289444,23.11288333,120.2972194,善化,C0O900,2021/12/17 6:00,9,19,3.1,19.1,0.95,1015.2,0,,,20,18.8,臺南市,4,善化區,255,2021/12/17 6:00,2021/12/17
22.834889,120.675806,22.83311111,120.6838889,尾寮山,C0R100,2021/12/17 14:00,1006,89,0.7,20.6,0.33,903.9,0,,,21.4,14,屏東縣,20,三地門鄉,291,2021/12/17 14:00,2021/12/17
25.096608,121.708897,25.09481944,121.7171278,七堵,C0B010,2021/12/17 9:00,38,37,5.2,19.2,0.93,1014.8,0,11.3,45,21,19.2,基隆市,3,七堵區,12,2021/12/17 9:00,2021/12/17
22.904381,121.075983,22.90258056,121.0840583,延平,C0S930,2021/12/17 2:00,248,248,1.1,16.3,0.81,989.1,0,,,17.6,16.1,臺東縣,22,延平鄉,280,2021/12/17 2:00,2021/12/17
23.175,120.136667,23.17303889,120.1450861,佳里,C0X080,2021/12/17 13:00,2,5,4.9,24.7,0.63,1015.4,0,10.9,5,25.5,17.7,臺南市,4,佳里區,250,2021/12/17 13:00,2021/12/17
23.897056,121.541694,23.89525,121.5498333,東華,C0Z100,2021/12/17 9:00,36,175,0.3,21.7,0.99,1016.4,0,,,21.7,16.3,花蓮縣,21,壽豐鄉,161,2021/12/17 9:00,2021/12/17
23.228686,120.248153,23.22693333,120.2562417,下營,C0X060,2021/12/17 5:00,19,16,1.8,18.8,0.97,1015.5,0,,,20,18.8,臺南市,4,下營區,242,2021/12/17 5:00,2021/12/17
22.625139,120.2675,22.623325,120.275575,鼓山,C0V690,2021/12/17 14:00,30,2,1.6,26.9,0.67,1010.9,0,,,27.3,19.5,高雄市,5,鼓山區,316,2021/12/17 14:00,2021/12/17
25.096608,121.708897,25.09481944,121.7171278,七堵,C0B010,2021/12/17 8:00,38,29,4.5,19.4,0.95,1014.2,0,,,21,19.4,基隆市,3,七堵區,12,2021/12/17 8:00,2021/12/17
24.491528,120.782639,24.48968056,120.7908528,銅鑼,C0E780,2021/12/17 7:00,160,334,0.9,19.3,0.93,1000.3,0,,,19.4,18.2,苗栗縣,11,銅鑼鄉,100,2021/12/17 7:00,2021/12/17
23.973944,120.944278,23.97216944,120.952425,埔里,C0H890,2021/12/17 10:00,440,0,0,21.3,0.61,966.2,0,,,21.3,14.1,南投縣,13,埔里鎮,147,2021/12/17 10:00,2021/12/17
21.923578,120.727792,21.92168889,120.7358167,貓鼻頭,C0R350,2021/12/17 13:00,35,35,3.7,26.7,0.66,1011.2,0,12.8,52,26.9,19.9,屏東縣,20,恆春鎮,350,2021/12/17 13:00,2021/12/17
23.104417,120.219972,23.10261389,120.2278389,安定,C0X150,2021/12/17 1:00,18,29,4.2,20.3,0.97,1016,0,,,20.3,20.1,臺南市,4,安定區,261,2021/12/17 1:00,2021/12/17
23.534519,120.835553,23.53274167,120.8436667,神木村,C0H9A0,2021/12/17 0:00,1595,0,0,9.7,0.76,848.8,0,,,24,9.6,南投縣,13,信義鄉,175,2021/12/17 0:00,2021/12/17
23.993611,121.529167,23.99186111,121.5371694,水源,C0T9B0,2021/12/17 1:00,558,266,1.5,18.4,0.82,954.9,0,,,18.7,17.7,花蓮縣,21,秀林鄉,108,2021/12/17 1:00,2021/12/17
23.152222,121.062222,23.15019444,121.070025,下馬,C0S660,2021/12/17 1:00,794,227,1.2,15,0.66,929.4,0,,,15.9,14.2,臺東縣,22,海端鄉,240,2021/12/17 1:00,2021/12/17
23.312447,120.308586,23.31068889,120.3166806,新營,C0X250,2021/12/17 7:00,33,11,1.7,18.3,0.95,1013.2,0,,,20.2,18.3,臺南市,4,新營區,235,2021/12/17 7:00,2021/12/17
25.284903,121.510814,25.28312778,121.5190583,白沙灣,C0AI20,2021/12/17 10:00,25,0,0,18.2,0.77,1018.5,0,17.6,23,20.9,18.2,新北市,6,石門區,1,2021/12/17 10:00,2021/12/17
23.711022,121.411969,23.70921944,121.4201056,萬榮,C0Z200,2021/12/17 0:00,153,284,0.5,16.3,0.99,1002,0,,,26.5,15.5,花蓮縣,21,鳳林鎮,184,2021/12/17 0:00,2021/12/17
24.85175,121.142611,24.84966389,121.1507889,打鐵坑,C0D480,2021/12/17 14:00,223,41,0.6,15.2,0.87,994.1,0,,,18.3,15.1,新竹縣,10,新埔鎮,63,2021/12/17 14:00,2021/12/17
24.459339,118.320831,24.45770278,118.3289889,金寧,C0W150,2021/12/17 13:00,42,56,8,18.8,0.74,1015.9,0,15.7,54,20.4,18.7,金門縣,99,金寧鄉,999,2021/12/17 13:00,2021/12/17
24.407236,120.741644,24.40547778,120.7498194,三義,C0E880,2021/12/17 14:00,507,55,6.8,12.8,0.99,957.9,0,16.8,58,15.5,12.8,苗栗縣,11,三義鄉,106,2021/12/17 14:00,2021/12/17
23.382611,120.159667,23.38086389,120.1677778,布袋,C0M750,2021/12/17 11:00,10,11,7.5,22.7,0.7,1016.1,0,,,23.1,19.5,嘉義縣,17,布袋鎮,225,2021/12/17 11:00,2021/12/17
22.704053,121.074603,22.70224722,121.0826639,知本(水試所),C0SA60,2021/12/17 7:00,6,344,2.2,19.4,0.72,1017.4,0,,,20,18.6,臺東縣,22,臺東市,297,2021/12/17 7:00,2021/12/17
21.933481,120.830933,21.93167222,120.8389417,龍磐,C0R710,2021/12/17 11:00,117,38,11.1,24.1,0.75,1003.2,0,17.6,30,24.1,21.3,屏東縣,20,恆春鎮,350,2021/12/17 11:00,2021/12/17
22.54,120.958889,22.53812222,120.966875,金崙,C0S790,2021/12/17 6:00,236,308,0.5,18.6,0.84,992.7,0,,,19.8,18.5,臺東縣,22,太麻里鄉,312,2021/12/17 6:00,2021/12/17
22.083031,121.495094,22.08119444,121.5031167,蘭嶼燈塔,C0S910,2021/12/17 8:00,212,38,3.3,22.8,0.81,993.5,0,14,33,22.8,21.9,臺東縣,22,蘭嶼鄉,351,2021/12/17 8:00,2021/12/17
23.071389,121.12,23.06913056,121.1262194,紅石,C0S760,2021/12/17 3:00,1621,-99,-99,14,0.52,842.1,0,,,14.6,13.8,臺東縣,22,海端鄉,240,2021/12/17 3:00,2021/12/17
24.312111,120.7215,24.31043611,120.729725,后里,C0F9L0,2021/12/17 1:00,253,54,2.2,18.1,0.99,988.1,0,,,18.2,17.9,臺中市,2,后里區,111,2021/12/17 1:00,2021/12/17
23.25,120.978056,23.24839722,120.9861333,向陽,C0S750,2021/12/17 3:00,2280,278,1.2,5.9,0.85,775.5,0,,,6.2,5.9,臺東縣,22,海端鄉,240,2021/12/17 3:00,2021/12/17
23.210556,121.254167,23.20871667,121.2623417,明里,C0Z020,2021/12/17 15:00,211,22,9.3,20.4,0.72,992.6,0,,,24.5,14.8,花蓮縣,21,富里鄉,241,2021/12/17 15:00,2021/12/17
23.459414,120.452408,23.45765556,120.4605167,嘉義市東區,C0M730,2021/12/17 15:00,40,348,3,23.9,0.56,1009.7,0,8.4,6,27.7,18.9,嘉義市,9,東區,217,2021/12/17 15:00,2021/12/17
24.930528,121.275,24.92870833,121.2832889,八德,C0C490,2021/12/17 0:00,157,28,1.6,19.6,0.88,1000.1,0,,,26,17.5,桃園市,8,八德區,52,2021/12/17 0:00,2021/12/17
24.683636,121.741144,24.68183611,121.7493444,羅東,C0U940,2021/12/17 12:00,25,47,0.8,18,0.93,1019.7,4,,,19.5,18,宜蘭縣,7,羅東鎮,86,2021/12/17 12:00,2021/12/17
23.346047,121.295197,23.34425,121.3033028,卓溪,C0Z170,2021/12/17 15:00,199,340,1.3,19,0.81,998.4,0,,,23.3,15,花蓮縣,21,卓溪鄉,207,2021/12/17 15:00,2021/12/17
25.15225,121.395306,25.15021111,121.4039472,八里,C0AD10,2021/12/17 13:00,27,27,4.1,16.4,0.89,1018.9,0,,,20.7,16.4,新北市,6,八里區,9,2021/12/17 13:00,2021/12/17
23.975444,120.672194,23.97367222,120.68085,草屯,C0H960,2021/12/17 11:00,120,28,1.5,24.3,0.62,1002.1,0,,,24.4,17.6,南投縣,13,草屯鎮,152,2021/12/17 11:00,2021/12/17
24.994256,121.315044,24.992425,121.3231722,桃園,C0C480,2021/12/17 3:00,105,124,0.3,19.3,0.98,1006.8,0,,,19.3,18.7,桃園市,8,桃園區,42,2021/12/17 3:00,2021/12/17
22.320422,120.849339,22.31861944,120.8573722,山豬窟,C0S990,2021/12/17 12:00,409,25,5.2,22.4,0.77,971.4,0,11.4,47,22.6,18.8,臺東縣,22,大武鄉,342,2021/12/17 12:00,2021/12/17
22.702861,120.339667,22.70108333,120.3477222,仁武,C0V680,2021/12/17 4:00,40,7,0.9,19.2,0.97,1011.2,0,,,21,18.7,高雄市,5,仁武區,306,2021/12/17 4:00,2021/12/17
25.088528,121.464056,25.08659444,121.4723306,蘆洲,C0AD30,2021/12/17 6:00,20,6,1,21,0.82,1015.7,0,,,21.1,20,新北市,6,蘆洲區,23,2021/12/17 6:00,2021/12/17
24.256306,120.712333,24.25432222,120.7206917,豐原,C0F9M0,2021/12/17 6:00,230,26,2.1,18.5,0.92,991,0,,,19.4,18.3,臺中市,2,豐原區,117,2021/12/17 6:00,2021/12/17
23.897056,121.541694,23.89525,121.5498333,東華,C0Z100,2021/12/17 0:00,36,0,0,17.2,0.99,1013.3,1,,,28.2,17.2,花蓮縣,21,壽豐鄉,161,2021/12/17 0:00,2021/12/17
22.721528,120.277917,22.71975,120.286,楠梓,C0V670,2021/12/17 8:00,20,21,1.6,19.2,0.94,1014.8,0,,,21,19,高雄市,5,楠梓區,305,2021/12/17 8:00,2021/12/17
22.610825,120.977275,22.60902222,120.9853278,太麻里,C0S690,2021/12/17 2:00,522,5,0.5,18.8,0.92,956.7,0,,,18.8,18.5,臺東縣,22,太麻里鄉,312,2021/12/17 2:00,2021/12/17
25.081206,121.567222,25.07942222,121.57545,內湖,C0A9F0,2021/12/17 12:00,35,85,2.6,18.7,0.84,1018.5,0,8.8,67,20.8,18.7,臺北市,1,內湖區,21,2021/12/17 12:00,2021/12/17
23.854225,120.312789,23.85248056,120.3209222,大城,C0G740,2021/12/17 13:00,24,8,6.6,20.7,0.67,1013.6,0,14.6,15,22.3,20,彰化縣,14,大城鄉,169,2021/12/17 13:00,2021/12/17
23.516064,120.221625,23.51431944,120.2297361,蔦松,C0K550,2021/12/17 0:00,15,358,2.4,20.1,0.92,1015.7,0,,,26.3,17.7,雲林縣,16,水林鄉,204,2021/12/17 0:00,2021/12/17
25.225278,121.635556,25.22362778,121.6439667,金山,C0A940,2021/12/17 11:00,49,48,1.4,17.8,0.85,1018,0,8.8,85,20.9,17.8,新北市,6,金山區,3,2021/12/17 11:00,2021/12/17
23.930008,121.083267,23.92822778,121.0914111,萬大林道,C0I490,2021/12/17 0:00,1601,289,1.5,10.7,0.99,844.9,0,,,22.9,9.8,南投縣,13,仁愛鄉,122,2021/12/17 0:00,2021/12/17
22.828222,120.592722,22.82638889,120.6008056,高樹,C0R470,2021/12/17 4:00,103,0,0.1,17.9,0.93,1004.8,0,,,19.7,17.9,屏東縣,20,高樹鄉,290,2021/12/17 4:00,2021/12/17
24.186278,120.520833,24.18453611,120.5289722,龍井,C0F9R0,2021/12/17 6:00,20,45,4.4,20.2,0.87,1016.7,0,,,20.6,20.1,臺中市,2,龍井區,115,2021/12/17 6:00,2021/12/17
24.855031,121.822586,24.85323333,121.8307972,頭城,C0U860,2021/12/17 11:00,5,36,3.4,19.1,0.81,1021.1,0,,,21.2,18.5,宜蘭縣,7,頭城鎮,51,2021/12/17 11:00,2021/12/17
23.469722,121.365833,23.46811389,121.3740694,舞鶴,C0Z070,2021/12/17 9:00,247,0,0,18.5,0.92,991.9,0,,,18.6,16,花蓮縣,21,瑞穗鄉,209,2021/12/17 9:00,2021/12/17
24.314833,120.816194,24.31276389,120.8247528,卓蘭,C0E790,2021/12/17 1:00,344,76,0.4,16.9,1,977.8,0,,,17.4,16.9,苗栗縣,11,卓蘭鎮,109,2021/12/17 1:00,2021/12/17
24.69,120.904167,24.68824722,120.9122056,頭份,C0E730,2021/12/17 12:00,26,49,3.4,18.8,0.71,1015.9,0,12.9,49,20.3,18.7,苗栗縣,11,頭份市,999,2021/12/17 12:00,2021/12/17
22.469778,120.574833,22.46794722,120.5828944,新埤,C0R550,2021/12/17 4:00,38,71,1.1,18,1,1010.9,0,,,19.8,18,屏東縣,20,新埤鄉,336,2021/12/17 4:00,2021/12/17
22.522769,120.883803,22.52096944,120.89185,歷坵,C0SA00,2021/12/17 11:00,466,133,1.9,23.4,0.64,965,0,,,23.6,15.3,臺東縣,22,太麻里鄉,312,2021/12/17 11:00,2021/12/17
24.688722,121.790222,24.68636944,121.7979444,五結,C0U780,2021/12/17 12:00,15,21,1.8,17.8,0.86,1020.4,2.5,7.2,16,20.4,17.8,宜蘭縣,7,五結鄉,82,2021/12/17 12:00,2021/12/17
23.903417,120.501389,23.90166944,120.5093889,田尾,C0G820,2021/12/17 6:00,29,24,0.4,18.4,0.95,1014.1,0,,,20.4,18.2,彰化縣,14,田尾鄉,167,2021/12/17 6:00,2021/12/17
23.225581,121.398542,23.22377222,121.4066389,石寧山,C0S940,2021/12/17 2:00,150,342,1.8,20.2,0.84,999.4,0,,,20.5,20.1,臺東縣,22,長濱鄉,227,2021/12/17 2:00,2021/12/17
24.434519,121.295628,24.43273889,121.3038083,桃山A,C0F9Y0,2021/12/17 11:00,3313,220,2.8,8.8,0.56,687.5,0,,,10.2,0.3,臺中市,2,和平區,104,2021/12/17 11:00,2021/12/17
22.741342,120.522697,22.73955833,120.5307778,鹽埔,C0R160,2021/12/17 14:00,45,303,1.1,26.5,0.69,1008.7,0,,,27,17.1,屏東縣,20,鹽埔鄉,301,2021/12/17 14:00,2021/12/17
25.167694,121.62475,25.16591389,121.6329694,大坪,C0A860,2021/12/17 7:00,362,26,5.8,16.1,1,979.3,0,,,18.4,16.1,新北市,6,萬里區,5,2021/12/17 7:00,2021/12/17
24.507222,121.5175,24.50548611,121.5256556,太平山,C0U710,2021/12/17 11:00,1942,0,0,9.4,0.99,811.6,0,,,10,7.1,宜蘭縣,7,大同鄉,81,2021/12/17 11:00,2021/12/17
23.012167,120.186333,23.01039444,120.1942278,臺南市北區,C0X100,2021/12/17 9:00,10,6,3.5,21.2,0.82,1014.7,0,8.6,354,21.2,19.5,臺南市,4,北區,357,2021/12/17 9:00,2021/12/17
24.312111,120.7215,24.31043611,120.729725,后里,C0F9L0,2021/12/17 10:00,253,33,4.6,20.6,0.77,988.7,0,11.7,54,21,17.9,臺中市,2,后里區,111,2021/12/17 10:00,2021/12/17
24.017222,120.613056,24.01567778,120.6213,芬園,C0G620,2021/12/17 1:00,110,10,1,18.6,0.99,1004.6,0,,,18.6,17.9,彰化縣,14,芬園鄉,148,2021/12/17 1:00,2021/12/17
25.028861,121.145111,25.02707222,121.1533167,觀音,C0C590,2021/12/17 2:00,72,30,1.8,20,0.9,1010.3,0,,,20.7,20,桃園市,8,觀音區,32,2021/12/17 2:00,2021/12/17
23.456792,120.323303,23.45504722,120.3314389,太保,C0M680,2021/12/17 1:00,37,2,0.7,20,0.94,1014.3,0,,,20,19.8,嘉義縣,17,太保市,218,2021/12/17 1:00,2021/12/17
24.939975,121.701531,24.93818333,121.70975,坪林,C0A530,2021/12/17 15:00,300,41,2.9,13,0.99,986.8,0,11,355,16.2,13,新北市,6,坪林區,53,2021/12/17 15:00,2021/12/17
24.217056,120.616239,24.21528056,120.62445,大雅(中科園區),C0F9X0,2021/12/17 12:00,166,32,8.3,19.2,0.71,997.5,0,19,48,20.5,18.4,臺中市,2,大雅區,121,2021/12/17 12:00,2021/12/17
25.098133,121.508275,25.09635556,121.5165056,科教館,C0A770,2021/12/17 10:00,60,58,2,19,0.71,1016.6,0,10.2,47,20.6,18.9,臺北市,1,士林區,7,2021/12/17 10:00,2021/12/17
25.068667,121.650556,25.06688056,121.6587778,汐止,C0AH00,2021/12/17 7:00,38,55,2,19.6,0.83,1016.4,1.5,,,21,19.4,新北市,6,汐止區,14,2021/12/17 7:00,2021/12/17
22.824944,120.228806,22.82315,120.2368556,永安,C0V620,2021/12/17 9:00,18,23,1.8,21.1,0.82,1016,0,,,21.1,19.5,高雄市,5,永安區,293,2021/12/17 9:00,2021/12/17
22.372167,120.62025,22.37036111,120.6283056,春日,C0R260,2021/12/17 4:00,76,0,0,19,0.98,1006.5,0,,,19.6,18.4,屏東縣,20,春日鄉,343,2021/12/17 4:00,2021/12/17
22.369511,120.582611,22.36772222,120.5906472,枋寮,C0R660,2021/12/17 5:00,20,56,1.3,19.1,0.91,1013.9,0,,,20.7,19.1,屏東縣,20,枋寮鄉,358,2021/12/17 5:00,2021/12/17
23.413075,120.300231,23.41132222,120.3083333,鹿草,C0M780,2021/12/17 0:00,30,20,1.6,19.7,0.99,1013.8,0,,,27.5,18.8,嘉義縣,17,鹿草鄉,226,2021/12/17 0:00,2021/12/17
22.545194,120.4535,22.5434,120.4615583,新園,C0R560,2021/12/17 9:00,22,29,1.1,21,0.88,1015.6,0,,,21.2,18.4,屏東縣,20,新園鄉,333,2021/12/17 9:00,2021/12/17
23.680772,120.387436,23.67901944,120.3955611,土庫,C0K390,2021/12/17 14:00,31,33,6.9,21.5,0.62,1012.1,0,13,43,23.3,18.8,雲林縣,16,土庫鎮,189,2021/12/17 14:00,2021/12/17
24.566667,120.816444,24.56456944,120.824575,苗栗,C0E750,2021/12/17 12:00,62,42,3.2,18.8,0.71,1011.6,0,12.3,25,20.2,18.7,苗栗縣,11,苗栗市,96,2021/12/17 12:00,2021/12/17
21.923578,120.727792,21.92168889,120.7358167,貓鼻頭,C0R350,2021/12/17 10:00,35,43,4.5,26,0.68,1013,0,13,55,26,19.9,屏東縣,20,恆春鎮,350,2021/12/17 10:00,2021/12/17
24.274222,120.650306,24.27248056,120.6583139,神岡,C0F9I0,2021/12/17 2:00,194,48,1.5,18.8,0.96,995,0,,,18.8,18.4,臺中市,2,神岡區,114,2021/12/17 2:00,2021/12/17
21.923578,120.727792,21.92168889,120.7358167,貓鼻頭,C0R350,2021/12/17 1:00,35,354,1.4,20.1,0.93,1011.9,0,,,21.4,20.1,屏東縣,20,恆春鎮,350,2021/12/17 1:00,2021/12/17
22.625139,120.2675,22.623325,120.275575,鼓山,C0V690,2021/12/17 15:00,30,342,2.8,25.9,0.69,1010.9,0,,,27.3,19.5,高雄市,5,鼓山區,316,2021/12/17 15:00,2021/12/17
23.347464,121.205061,23.34566667,121.2131639,佳心,C0Z050,2021/12/17 2:00,830,234,0.3,15.5,0.6,926.7,0,,,16.9,15.4,花蓮縣,21,卓溪鄉,207,2021/12/17 2:00,2021/12/17
22.900556,120.511111,22.89874167,120.5191528,美濃,C0V310,2021/12/17 13:00,46,338,0.8,28.5,0.53,1008.6,0,,,29,17.7,高雄市,5,美濃區,282,2021/12/17 13:00,2021/12/17
23.071389,121.12,23.06913056,121.1262194,紅石,C0S760,2021/12/17 11:00,1621,-99,-99,15.7,0.86,843.7,0,,,16.1,9.9,臺東縣,22,海端鄉,240,2021/12/17 11:00,2021/12/17
24.899333,121.784231,24.89753611,121.7924444,鶯子嶺,C0U950,2021/12/17 10:00,1012,319,7.7,12.2,1,907.7,9.5,15.9,313,14.4,12.2,宜蘭縣,7,頭城鎮,51,2021/12/17 10:00,2021/12/17
24.592053,121.404039,24.59026944,121.4122278,鴛鴦湖,C0UA10,2021/12/17 11:00,1711,0,0,10.6,0.97,837.1,0,,,10.6,7.9,宜蘭縣,7,大同鄉,81,2021/12/17 11:00,2021/12/17
23.288611,121.403889,23.28681667,121.411975,長濱,C0S830,2021/12/17 12:00,288,46,4.3,23.1,0.77,986.8,0,10.8,36,25.6,19.2,臺東縣,22,長濱鄉,227,2021/12/17 12:00,2021/12/17
23.564311,119.460328,23.5626,119.4684361,西嶼,C0W120,2021/12/17 15:00,58,15,16.2,19.2,0.78,1010.2,0,26,19,21.6,19.1,澎湖縣,23,西嶼鄉,200,2021/12/17 15:00,2021/12/17
25.019167,121.934167,25.01784167,121.9420833,福隆,C0A880,2021/12/17 2:00,6,335,1.4,19.6,1,1015.6,0.5,,,19.6,17.8,新北市,6,貢寮區,27,2021/12/17 2:00,2021/12/17
24.923619,121.536533,24.92183611,121.544725,屈尺,C0AI10,2021/12/17 8:00,76,13,1,19.3,0.86,1012.2,0,,,19.3,18.2,新北市,6,新店區,50,2021/12/17 8:00,2021/12/17
23.185056,120.2405,23.18328889,120.2486111,麻豆,C0X120,2021/12/17 8:00,28,7,2.4,19.4,0.94,1014.9,0,,,20.3,18.8,臺南市,4,麻豆區,247,2021/12/17 8:00,2021/12/17
24.85175,121.142611,24.84966389,121.1507889,打鐵坑,C0D480,2021/12/17 9:00,223,27,0.5,17.1,0.9,995,0,,,18.3,17.1,新竹縣,10,新埔鎮,63,2021/12/17 9:00,2021/12/17
23.078333,120.136667,23.07669444,120.1448611,安南,C0O950,2021/12/17 8:00,4,10,0.4,19.2,0.99,1015.7,0,,,20.9,18.5,臺南市,4,安南區,265,2021/12/17 8:00,2021/12/17
24.491528,120.782639,24.48968056,120.7908528,銅鑼,C0E780,2021/12/17 9:00,160,310,0.9,19.3,0.85,1000.8,0,,,19.4,18.2,苗栗縣,11,銅鑼鄉,100,2021/12/17 9:00,2021/12/17
23.525708,121.382086,23.5239,121.3902111,瑞穗,C0Z210,2021/12/17 14:00,126,352,3.2,19,0.99,1005.3,0,,,23.3,15.1,花蓮縣,21,瑞穗鄉,209,2021/12/17 14:00,2021/12/17
23.95175,120.471056,23.94835,120.4791222,溪湖,C0G660,2021/12/17 12:00,27,7,3.9,22.4,0.63,1013.4,0,11.6,3,23.5,18.8,彰化縣,14,溪湖鎮,157,2021/12/17 12:00,2021/12/17
24.994256,121.315044,24.992425,121.3231722,桃園,C0C480,2021/12/17 9:00,105,109,1.1,18.4,0.8,1009.9,0,,,19.5,18.4,桃園市,8,桃園區,42,2021/12/17 9:00,2021/12/17
24.792836,121.666839,24.79104167,121.6750472,大礁溪,C0U870,2021/12/17 10:00,474,52,1.2,16.7,0.99,967.7,0.5,,,18.4,16.6,宜蘭縣,7,礁溪鄉,65,2021/12/17 10:00,2021/12/17
25.130925,121.568856,25.12914167,121.5770861,平等,C0AH40,2021/12/17 11:00,426,34,2.6,14.5,0.94,972.6,0,,,18.1,14.3,臺北市,1,士林區,7,2021/12/17 11:00,2021/12/17
24.201583,120.8075,24.20017222,120.8158056,新社,C0F9V0,2021/12/17 4:00,525,173,1.2,17.7,0.82,955.6,0,,,19.6,16.9,臺中市,2,新社區,119,2021/12/17 4:00,2021/12/17
23.527931,120.547378,23.52616667,120.5554972,竹崎,C0M700,2021/12/17 6:00,150,61,0.7,16.8,0.99,999.9,0,,,18.6,16.8,嘉義縣,17,竹崎鄉,215,2021/12/17 6:00,2021/12/17
22.545194,120.4535,22.5434,120.4615583,新園,C0R560,2021/12/17 14:00,22,152,2,27.4,0.5,1012.6,0,,,27.7,18.4,屏東縣,20,新園鄉,333,2021/12/17 14:00,2021/12/17
23.587147,120.547464,23.58538611,120.5555806,嘉義梅山,C0M770,2021/12/17 7:00,164,353,2.4,18.2,0.82,997.3,0,,,18.7,16.5,嘉義縣,17,梅山鄉,210,2021/12/17 7:00,2021/12/17
23.228686,120.248153,23.22693333,120.2562417,下營,C0X060,2021/12/17 3:00,19,20,3.4,20,0.95,1015.5,0,,,20,19.5,臺南市,4,下營區,242,2021/12/17 3:00,2021/12/17
24.993403,121.483569,24.99162222,121.4917917,中和,C0AG80,2021/12/17 6:00,48,0,0.2,20.6,0.84,1014,0,,,20.7,19.5,新北市,6,中和區,48,2021/12/17 6:00,2021/12/17
22.083031,121.495094,22.08119444,121.5031167,蘭嶼燈塔,C0S910,2021/12/17 9:00,212,31,8.8,23.2,0.78,994,0,19.2,37,23.2,21.9,臺東縣,22,蘭嶼鄉,351,2021/12/17 9:00,2021/12/17
23.902453,120.704053,23.90068889,120.7121917,南投服務區,CM0160,2021/12/17 8:00,159,0,0.2,17.5,0.99,-99,0,,,18,15.9,南投縣,13,南投市,160,2021/12/17 8:00,2021/12/17
24.619833,120.94055,24.61806944,120.9485778,大河,C0E850,2021/12/17 1:00,104,0,0,16.9,0.98,1006,0,,,16.9,16.4,苗栗縣,11,三灣鄉,88,2021/12/17 1:00,2021/12/17
23.575803,120.283672,23.57405556,120.2917861,北港,C0K410,2021/12/17 9:00,20,16,6.8,21.5,0.82,1013.9,0,12.6,6,21.5,19,雲林縣,16,北港鎮,203,2021/12/17 9:00,2021/12/17
22.529111,120.617056,22.52730556,120.6251111,來義,C0R240,2021/12/17 13:00,87,239,0.9,25.8,0.61,1004.4,0,,,26.7,16.8,屏東縣,20,萬巒鄉,319,2021/12/17 13:00,2021/12/17
23.813667,121.433194,23.8119,121.4414583,西林,C0T900,2021/12/17 11:00,160,88,1.1,21.6,0.7,999.5,0,,,22.5,16.8,花蓮縣,21,萬榮鄉,166,2021/12/17 11:00,2021/12/17
22.759583,120.297694,22.75780556,120.30575,橋頭,C0V760,2021/12/17 8:00,30,60,1.1,19.8,0.97,1013.7,0,,,20.7,19.2,高雄市,5,橋頭區,299,2021/12/17 8:00,2021/12/17
24.792836,121.666839,24.79104167,121.6750472,大礁溪,C0U870,2021/12/17 11:00,474,12,0.7,16.4,0.99,967.8,0.5,,,18.4,16.4,宜蘭縣,7,礁溪鄉,65,2021/12/17 11:00,2021/12/17
24.439167,121.373333,24.43741944,121.3816694,南山,C0U720,2021/12/17 3:00,1260,224,1.2,13,0.86,892.2,0,,,14.8,13,宜蘭縣,7,大同鄉,81,2021/12/17 3:00,2021/12/17
23.288611,121.403889,23.28681667,121.411975,長濱,C0S830,2021/12/17 10:00,288,52,2.5,24.7,0.72,988.1,0,,,25.3,19.2,臺東縣,22,長濱鄉,227,2021/12/17 10:00,2021/12/17
22.711667,120.631889,22.70988889,120.6399444,三地門,C0R150,2021/12/17 3:00,105,95,1.5,20.9,0.6,1002.2,0,,,21.4,20.7,屏東縣,20,內埔鄉,310,2021/12/17 3:00,2021/12/17
23.436364,120.230928,23.43462778,120.2390194,朴子,C0M650,2021/12/17 9:00,20,24,2,22,0.77,1015.4,0,,,22,18.8,嘉義縣,17,朴子市,222,2021/12/17 9:00,2021/12/17
24.365503,121.436489,24.36371389,121.4446667,南湖圈谷A,C0F0E0,2021/12/17 8:00,3557,28,2.1,4.9,0.19,666.5,0,10.6,23,5,-1.3,臺中市,2,和平區,104,2021/12/17 8:00,2021/12/17
24.274222,120.650306,24.27248056,120.6583139,神岡,C0F9I0,2021/12/17 0:00,194,12,1.9,18.5,1,995,0,,,24.9,17.4,臺中市,2,神岡區,114,2021/12/17 0:00,2021/12/17
24.85175,121.142611,24.84966389,121.1507889,打鐵坑,C0D480,2021/12/17 15:00,223,51,0.3,14.6,0.9,994.4,0,,,18.3,14.6,新竹縣,10,新埔鎮,63,2021/12/17 15:00,2021/12/17
23.288611,121.403889,23.28681667,121.411975,長濱,C0S830,2021/12/17 14:00,288,45,4.5,21,0.8,986.4,0,11.4,55,25.6,19.2,臺東縣,22,長濱鄉,227,2021/12/17 14:00,2021/12/17
24.105556,120.743333,24.10355556,120.7510611,中竹林,C0F9A0,2021/12/17 14:00,425,352,2,20.4,0.83,967.6,0,,,24.2,16.2,臺中市,2,太平區,130,2021/12/17 14:00,2021/12/17
24.608056,120.775556,24.60648889,120.7839333,後龍,C0E540,2021/12/17 8:00,32,45,2.4,20.5,0.8,1016.5,0,10.3,33,20.9,20.1,苗栗縣,11,後龍鎮,91,2021/12/17 8:00,2021/12/17
23.023139,120.339806,23.021375,120.3478778,虎頭埤,C0O970,2021/12/17 6:00,71,66,1.3,17.7,0.97,1008.1,0,,,19.3,17.4,臺南市,4,新化區,267,2021/12/17 6:00,2021/12/17
25.265556,121.557278,25.26378333,121.5652583,富貴角,C0A920,2021/12/17 7:00,196,28,2.5,17.5,0.99,998.2,0,,,19.6,17.5,新北市,6,石門區,1,2021/12/17 7:00,2021/12/17
22.191928,120.684131,22.19013056,120.6921556,楓港,C0R670,2021/12/17 0:00,26,54,1.5,21.7,0.82,1013.7,0,,,27.3,21.7,屏東縣,20,枋山鄉,346,2021/12/17 0:00,2021/12/17
22.291944,120.881944,22.279725,120.8892083,南田,C0S840,2021/12/17 4:00,22,0,0,20.3,0.91,1015.9,0,,,20.8,20,臺東縣,22,達仁鄉,337,2021/12/17 4:00,2021/12/17
22.050931,121.504119,22.04909444,121.5121417,蘭嶼高中,C0S900,2021/12/17 8:00,27,2,4.8,24.7,0.75,1015.4,0,11.9,356,24.7,22.4,臺東縣,22,蘭嶼鄉,351,2021/12/17 8:00,2021/12/17
22.522769,120.883803,22.52096944,120.89185,歷坵,C0SA00,2021/12/17 2:00,466,305,1.4,15.6,1,963.4,0,,,16,15.3,臺東縣,22,太麻里鄉,312,2021/12/17 2:00,2021/12/17
24.566667,120.816444,24.56456944,120.824575,苗栗,C0E750,2021/12/17 9:00,62,24,3.1,20.2,0.76,1011.6,0,,,20.2,19.6,苗栗縣,11,苗栗市,96,2021/12/17 9:00,2021/12/17
23.390872,120.708528,23.389125,120.7166472,里佳,C0M810,2021/12/17 13:00,1354,10,0.3,20.1,0.66,867.5,0,,,20.1,13.4,嘉義縣,17,阿里山鄉,208,2021/12/17 13:00,2021/12/17
22.291944,120.881944,22.279725,120.8892083,南田,C0S840,2021/12/17 14:00,22,0,0,25,0.76,1015.6,0,,,26.8,19.2,臺東縣,22,達仁鄉,337,2021/12/17 14:00,2021/12/17
25.092031,121.494792,25.09025278,121.5030194,士林,C0A9E0,2021/12/17 12:00,26,66,2.2,19.1,0.65,1019.7,0,,,20.6,19.1,臺北市,1,士林區,7,2021/12/17 12:00,2021/12/17
23.937444,121.500806,23.93563889,121.5089444,鯉魚潭,C0T870,2021/12/17 0:00,135,0,0.1,14.9,0.99,1001.8,0,,,26.4,14.7,花蓮縣,21,壽豐鄉,161,2021/12/17 0:00,2021/12/17
23.948694,120.517611,23.94763333,120.5254556,埔心,C0G810,2021/12/17 11:00,26,352,3.4,23,0.6,1013,0,11.7,344,23.4,18.9,彰化縣,14,埔心鄉,158,2021/12/17 11:00,2021/12/17
24.974944,121.436917,24.97320833,121.4451694,土城,C0AD40,2021/12/17 12:00,32,46,1.6,17.7,0.83,1018.4,0,,,20.1,17.7,新北市,6,土城區,49,2021/12/17 12:00,2021/12/17
24.415731,121.775067,24.413925,121.7832472,樟樹山,C0UA60,2021/12/17 0:00,566,101,0.5,17.5,0.97,952.9,0,,,24.4,15.9,宜蘭縣,7,南澳鄉,93,2021/12/17 0:00,2021/12/17
23.647817,120.4234,23.64606389,120.431525,大埤,C0K450,2021/12/17 12:00,35,11,5.9,23.2,0.63,1011.7,0,,,23.6,18.3,雲林縣,16,大埤鄉,199,2021/12/17 12:00,2021/12/17
24.451153,121.802036,24.44934722,121.8102194,南澳,C0U770,2021/12/17 7:00,5,13,2.1,19.1,0.86,1018.9,0,,,19.2,17.9,宜蘭縣,7,南澳鄉,93,2021/12/17 7:00,2021/12/17
23.897478,120.933219,23.89570278,120.94135,魚池,C0I370,2021/12/17 4:00,671,215,0.4,14.4,0.99,942.1,0,,,17.1,14.3,南投縣,13,魚池鄉,164,2021/12/17 4:00,2021/12/17
23.225581,121.398542,23.22377222,121.4066389,石寧山,C0S940,2021/12/17 5:00,150,354,1.6,20.6,0.74,1000.1,0,,,20.6,19.7,臺東縣,22,長濱鄉,227,2021/12/17 5:00,2021/12/17
25.049444,121.217778,25.04775,121.2259583,大園,C0C540,2021/12/17 8:00,46,52,3.6,19,0.82,1016.2,0,9.2,27,20.7,19,桃園市,8,大園區,19,2021/12/17 8:00,2021/12/17
22.58995,120.656922,22.58819444,120.6649444,舊泰武,C0R600,2021/12/17 14:00,766,243,2.6,21.2,0.81,928.6,0,,,21.2,17.6,屏東縣,20,泰武鄉,318,2021/12/17 14:00,2021/12/17
25.096608,121.708897,25.09481944,121.7171278,七堵,C0B010,2021/12/17 0:00,38,0,0,20.8,1,1011.1,0,,,25.8,18.8,基隆市,3,七堵區,12,2021/12/17 0:00,2021/12/17
24.277822,120.769478,24.27606111,120.7776444,石岡,C0F0B0,2021/12/17 5:00,311,0,0.2,15.2,0.95,981.8,0,,,17.2,15.1,臺中市,2,石岡區,116,2021/12/17 5:00,2021/12/17
23.078333,120.136667,23.07669444,120.1448611,安南,C0O950,2021/12/17 15:00,4,344,3.3,23,0.77,1013.7,0,,,25.5,18.5,臺南市,4,安南區,265,2021/12/17 15:00,2021/12/17
22.684722,120.678889,22.68290278,120.6866389,瑪家,C0R140,2021/12/17 15:00,740,352,1.7,21,0.88,934.1,0,,,22.2,16.6,屏東縣,20,瑪家鄉,308,2021/12/17 15:00,2021/12/17
24.041264,121.596386,24.03946111,121.6045389,新城,C0Z180,2021/12/17 11:00,34,48,5.1,22.4,0.77,1016.2,0,11,48,23.1,18.5,花蓮縣,21,新城鄉,136,2021/12/17 11:00,2021/12/17
22.904381,121.075983,22.90258056,121.0840583,延平,C0S930,2021/12/17 6:00,248,268,1.7,16.4,0.75,990.3,0,,,17.6,15.5,臺東縣,22,延平鄉,280,2021/12/17 6:00,2021/12/17
23.854225,120.312789,23.85248056,120.3209222,大城,C0G740,2021/12/17 10:00,24,4,5.8,22,0.71,1015.1,0,11.9,17,22.3,20,彰化縣,14,大城鄉,169,2021/12/17 10:00,2021/12/17
24.974944,121.436917,24.97320833,121.4451694,土城,C0AD40,2021/12/17 2:00,32,0,0,18.7,0.96,1015.3,0,,,18.9,18.4,新北市,6,土城區,49,2021/12/17 2:00,2021/12/17
24.035,121.173333,24.03331111,121.1818083,廬山,C0I010,2021/12/17 3:00,1562,60,0.4,11.1,0.59,851,0,,,11.5,9.6,南投縣,13,仁愛鄉,122,2021/12/17 3:00,2021/12/17
23.223828,120.392758,23.22206389,120.40085,王爺宮,C0O840,2021/12/17 3:00,134,42,0.8,18.7,0.99,998.5,0,,,18.7,18.6,臺南市,4,六甲區,243,2021/12/17 3:00,2021/12/17
23.95175,120.471056,23.94835,120.4791222,溪湖,C0G660,2021/12/17 10:00,27,8,4,23.1,0.67,1013.9,0,9.6,8,23.1,18.8,彰化縣,14,溪湖鎮,157,2021/12/17 10:00,2021/12/17
23.77455,120.400811,23.77279722,120.4089444,二崙,C0K440,2021/12/17 11:00,35,4,9.7,22.4,0.67,1013.1,0,,,22.5,18.5,雲林縣,16,二崙鄉,180,2021/12/17 11:00,2021/12/17
24.314833,120.816194,24.31276389,120.8247528,卓蘭,C0E790,2021/12/17 9:00,344,40,2.2,20.3,0.94,977.9,0,12.2,1,20.3,16.9,苗栗縣,11,卓蘭鎮,109,2021/12/17 9:00,2021/12/17
24.111019,121.318297,24.10923056,121.3264556,奇萊稜線A,C0I540,2021/12/17 6:00,3344,281,6,0.4,0.77,-99,0,,,1.8,0.4,南投縣,13,仁愛鄉,122,2021/12/17 6:00,2021/12/17
22.731944,120.338583,22.73030556,120.3466389,大社,C0V770,2021/12/17 13:00,26,298,0.9,26.8,0.52,1011.8,0,,,26.8,18.5,高雄市,5,大社區,304,2021/12/17 13:00,2021/12/17
23.413075,120.300231,23.41132222,120.3083333,鹿草,C0M780,2021/12/17 7:00,30,31,1.8,18.9,0.99,1013.8,0,,,20.1,18.2,嘉義縣,17,鹿草鄉,226,2021/12/17 7:00,2021/12/17
22.454908,120.879528,22.45310833,120.8875722,土阪,C0SA80,2021/12/17 15:00,136,93,3.3,22.6,0.76,1000.6,0,,,25.4,17.3,臺東縣,22,達仁鄉,337,2021/12/17 15:00,2021/12/17
22.610825,120.977275,22.60902222,120.9853278,太麻里,C0S690,2021/12/17 6:00,522,352,1,19.6,0.75,957.4,0,,,19.6,18.5,臺東縣,22,太麻里鄉,312,2021/12/17 6:00,2021/12/17
24.076944,120.422222,24.0753,120.4304806,鹿港,C0G640,2021/12/17 8:00,17,19,6.5,21,0.86,1016.5,0,12,8,21,19.9,彰化縣,14,鹿港鎮,140,2021/12/17 8:00,2021/12/17
22.919517,121.114908,22.91771111,121.1229944,鹿野,C0S710,2021/12/17 15:00,382,45,3.4,22,0.74,973.7,0,,,23.9,14.8,臺東縣,22,鹿野鄉,274,2021/12/17 15:00,2021/12/17
24.277822,120.769478,24.27606111,120.7776444,石岡,C0F0B0,2021/12/17 10:00,311,49,4.1,20.4,0.71,982.3,0,9.7,55,20.6,14.7,臺中市,2,石岡區,116,2021/12/17 10:00,2021/12/17
23.346047,121.295197,23.34425,121.3033028,卓溪,C0Z170,2021/12/17 12:00,199,50,2.4,23.2,0.65,997.9,0,,,23.2,15,花蓮縣,21,卓溪鄉,207,2021/12/17 12:00,2021/12/17
24.491528,120.782639,24.48968056,120.7908528,銅鑼,C0E780,2021/12/17 8:00,160,317,0.9,18.9,0.86,1000.4,0,,,19.4,18.2,苗栗縣,11,銅鑼鄉,100,2021/12/17 8:00,2021/12/17
22.320422,120.849339,22.31861944,120.8573722,山豬窟,C0S990,2021/12/17 5:00,409,10,3,19.1,0.86,970.8,0,,,19.6,18.8,臺東縣,22,大武鄉,342,2021/12/17 5:00,2021/12/17
23.401778,119.314667,23.40006944,119.3227611,花嶼,C0W130,2021/12/17 2:00,18,19,6.1,21.5,0.84,1013.7,0,12.7,25,21.6,21.4,澎湖縣,23,望安鄉,231,2021/12/17 2:00,2021/12/17
22.888889,120.236444,22.88713889,120.2445,湖內,C0V640,2021/12/17 5:00,35,48,2.4,19.8,0.99,1012.3,0,,,20.5,19.8,高雄市,5,湖內區,285,2021/12/17 5:00,2021/12/17
23.195028,120.307528,23.19321667,120.3154222,官田,C0X130,2021/12/17 2:00,27,25,3.2,20.3,1,1011.9,0,9.3,39,20.4,19.8,臺南市,4,官田區,248,2021/12/17 2:00,2021/12/17
23.460653,120.145722,23.45891111,120.1538306,東石,C0M710,2021/12/17 13:00,15,10,7.1,21.6,0.67,1014.6,0,16.4,11,22.5,20,嘉義縣,17,東石鄉,216,2021/12/17 13:00,2021/12/17
22.509583,120.386556,22.50774722,120.3945111,林園,C0V720,2021/12/17 9:00,15,60,1.7,21,0.84,1014.9,0,,,21.4,18.7,高雄市,5,林園區,335,2021/12/17 9:00,2021/12/17
24.979428,121.248156,24.97766111,121.256375,中壢,C0C700,2021/12/17 0:00,151,85,1.1,19.4,0.87,1001.5,0,,,25,18.2,桃園市,8,中壢區,43,2021/12/17 0:00,2021/12/17
22.661944,120.483611,22.66026944,120.4940722,屏東,C0R170,2021/12/17 6:00,26,30,0.6,17.4,1,1012.9,0,,,19.4,17.1,屏東縣,20,屏東市,309,2021/12/17 6:00,2021/12/17
23.339792,120.675231,23.33801667,120.6833306,新美,C0M860,2021/12/17 12:00,578,214,1,24,0.52,950.5,0,,,24.1,15.1,嘉義縣,17,阿里山鄉,208,2021/12/17 12:00,2021/12/17
24.201583,120.8075,24.20017222,120.8158056,新社,C0F9V0,2021/12/17 8:00,525,47,2,18.2,0.85,956.7,0,,,19.6,16.3,臺中市,2,新社區,119,2021/12/17 8:00,2021/12/17
23.555011,120.3376,23.55326111,120.3457194,新港,C0M790,2021/12/17 3:00,15,11,2.7,19.5,0.97,1013.4,0,,,20,19.5,嘉義縣,17,新港鄉,211,2021/12/17 3:00,2021/12/17
22.369511,120.582611,22.36772222,120.5906472,枋寮,C0R660,2021/12/17 7:00,20,344,1.4,19.4,0.9,1014.4,0,,,20.7,19,屏東縣,20,枋寮鄉,358,2021/12/17 7:00,2021/12/17
22.976944,120.458333,22.97548056,120.4667694,內門,C0V360,2021/12/17 6:00,94,42,0.4,17.5,0.94,1005.4,0,,,17.9,16.4,高雄市,5,內門區,270,2021/12/17 6:00,2021/12/17
23.225581,121.398542,23.22377222,121.4066389,石寧山,C0S940,2021/12/17 11:00,150,28,4.6,24.3,0.77,1001.3,0,10.1,47,24.4,19.5,臺東縣,22,長濱鄉,227,2021/12/17 11:00,2021/12/17
24.111019,121.318297,24.10923056,121.3264556,奇萊稜線A,C0I540,2021/12/17 1:00,3344,274,5,1.6,0.69,-99,0,,,1.8,1.6,南投縣,13,仁愛鄉,122,2021/12/17 1:00,2021/12/17
23.081667,120.5825,23.08010556,120.5917583,甲仙,C0V250,2021/12/17 2:00,298,61,0.8,16.2,0.94,981.3,0,,,16.7,16.1,高雄市,5,甲仙區,251,2021/12/17 2:00,2021/12/17
23.312447,120.308586,23.31068889,120.3166806,新營,C0X250,2021/12/17 1:00,33,10,4.1,20.1,0.95,1013,0,,,20.1,19.8,臺南市,4,新營區,235,2021/12/17 1:00,2021/12/17
23.680772,120.387436,23.67901944,120.3955611,土庫,C0K390,2021/12/17 15:00,31,34,6.7,20.7,0.64,1012.1,0,13.1,35,23.3,18.8,雲林縣,16,土庫鎮,189,2021/12/17 15:00,2021/12/17
25.059108,121.4924,25.05737778,121.500625,三重,C0AI30,2021/12/17 4:00,26,0,0,20.9,0.86,1017,0,,,20.9,20.3,新北市,6,三重區,25,2021/12/17 4:00,2021/12/17
25.111389,121.461389,25.10950833,121.4696806,社子,C0A980,2021/12/17 5:00,11,348,1.9,19.6,0.93,1019,0,,,19.7,18.3,臺北市,1,士林區,7,2021/12/17 5:00,2021/12/17
22.545194,120.4535,22.5434,120.4615583,新園,C0R560,2021/12/17 8:00,22,322,1.7,18.9,0.98,1015.7,0,,,21.2,18.4,屏東縣,20,新園鄉,333,2021/12/17 8:00,2021/12/17
23.897056,121.541694,23.89525,121.5498333,東華,C0Z100,2021/12/17 12:00,36,65,1.9,22.7,0.99,1015.2,0,7.4,78,23.3,16.3,花蓮縣,21,壽豐鄉,161,2021/12/17 12:00,2021/12/17
24.035917,120.495722,24.03405,120.5038694,秀水,C0G780,2021/12/17 10:00,27,13,5.8,-99,0.72,1014.8,0,13,11,-99,-99,彰化縣,14,秀水鄉,144,2021/12/17 10:00,2021/12/17
24.182028,120.632861,24.17949444,120.641275,西屯,C0F9T0,2021/12/17 1:00,111,351,1.3,19.9,0.95,1003.2,0,,,20,19.6,臺中市,2,西屯區,125,2021/12/17 1:00,2021/12/17
22.610825,120.977275,22.60902222,120.9853278,太麻里,C0S690,2021/12/17 11:00,522,12,1,21.5,0.71,958.6,0,,,22,18.5,臺東縣,22,太麻里鄉,312,2021/12/17 11:00,2021/12/17
25.004489,121.620106,25.00270278,121.6283278,深坑,C0AH80,2021/12/17 0:00,68,0,0,17.3,0.95,1010,0,,,27,16.9,新北市,6,深坑區,44,2021/12/17 0:00,2021/12/17
25.081206,121.567222,25.07942222,121.57545,內湖,C0A9F0,2021/12/17 0:00,35,0,0,19.7,1,1015.2,0,,,27.8,19.3,臺北市,1,內湖區,21,2021/12/17 0:00,2021/12/17
25.265556,121.557278,25.26378333,121.5652583,富貴角,C0A920,2021/12/17 8:00,196,25,3.1,17,1,998.8,0,9.9,26,19.6,17,新北市,6,石門區,1,2021/12/17 8:00,2021/12/17
23.223828,120.392758,23.22206389,120.40085,王爺宮,C0O840,2021/12/17 12:00,134,324,1,25.4,0.62,999.4,0,,,25.4,17.7,臺南市,4,六甲區,243,2021/12/17 12:00,2021/12/17
23.993611,121.529167,23.99186111,121.5371694,水源,C0T9B0,2021/12/17 12:00,558,108,0.7,18.6,0.89,956.3,0,,,19.9,17,花蓮縣,21,秀林鄉,108,2021/12/17 12:00,2021/12/17
24.930528,121.275,24.92870833,121.2832889,八德,C0C490,2021/12/17 5:00,157,31,1,19.3,0.89,1001,0,,,19.6,19.3,桃園市,8,八德區,52,2021/12/17 5:00,2021/12/17
25.039606,121.556372,25.03782222,121.5645972,信義,C0AC70,2021/12/17 14:00,71,127,0.5,17.1,0.78,1013.6,0,7.7,14,20.5,17.1,臺北市,1,信義區,38,2021/12/17 14:00,2021/12/17
23.390872,120.708528,23.389125,120.7166472,里佳,C0M810,2021/12/17 3:00,1354,219,0.3,14.6,0.84,868,0,,,14.6,13.4,嘉義縣,17,阿里山鄉,208,2021/12/17 3:00,2021/12/17
22.569219,120.951617,22.56741944,120.9596667,金崙山,C0SA20,2021/12/17 8:00,857,11,0.9,16.6,0.86,923,0,,,16.6,14.9,臺東縣,22,太麻里鄉,312,2021/12/17 8:00,2021/12/17
24.669917,121.644819,24.66812222,121.6530167,三星,C0U890,2021/12/17 5:00,116,244,1.5,18,0.92,1007,0,,,19.9,18,宜蘭縣,7,三星鄉,84,2021/12/17 5:00,2021/12/17
22.972778,120.531778,22.97100278,120.5398528,月眉,C0V260,2021/12/17 6:00,126,14,0.7,15.8,0.99,1001.7,0,,,17.7,15.5,高雄市,5,杉林區,269,2021/12/17 6:00,2021/12/17
24.453056,120.921944,24.45127222,120.9301917,馬都安,C0E610,2021/12/17 0:00,850,0,0,17.4,0.64,923.3,0,,,21.4,15.9,苗栗縣,11,泰安鄉,101,2021/12/17 0:00,2021/12/17
22.607389,120.387667,22.60561389,120.3957167,大寮,C0V730,2021/12/17 0:00,33,1,0.9,21,0.85,1011.9,0,,,27.8,18.8,高雄市,5,大寮區,320,2021/12/17 0:00,2021/12/17
24.023903,121.124056,24.02212222,121.1322056,仁愛,C0I390,2021/12/17 5:00,1184,98,2.4,9.6,0.93,889.2,0,,,11.9,9.6,南投縣,13,仁愛鄉,122,2021/12/17 5:00,2021/12/17
25.037861,121.856056,25.03600278,121.8642417,雙溪,C0A890,2021/12/17 5:00,40,0,0,19.2,0.95,1014.1,0,,,19.2,16.9,新北市,6,雙溪區,24,2021/12/17 5:00,2021/12/17
23.948333,120.577528,23.94650278,120.5855972,員林,C0G650,2021/12/17 12:00,34,13,1.9,23.9,0.59,1012.8,0,,,24.7,18.5,彰化縣,14,員林市,156,2021/12/17 12:00,2021/12/17
23.647817,120.4234,23.64606389,120.431525,大埤,C0K450,2021/12/17 2:00,35,26,4.4,19.2,0.92,1011.9,0,,,19.7,19.2,雲林縣,16,大埤鄉,199,2021/12/17 2:00,2021/12/17
22.077883,120.828758,22.076075,120.8367944,檳榔,C0R280,2021/12/17 0:00,242,65,0.8,19.7,0.99,988.4,0,,,23.7,19.4,屏東縣,20,滿州鄉,348,2021/12/17 0:00,2021/12/17
21.995386,120.853619,21.99357778,120.8616333,佳樂水,C0R680,2021/12/17 13:00,13,62,7.2,25.7,0.68,1013.5,0,18.6,76,26,22,屏東縣,20,滿州鄉,348,2021/12/17 13:00,2021/12/17
25.05325,121.438528,25.05147778,121.4467556,新莊,C0ACA0,2021/12/17 9:00,25,29,2.1,19.1,0.81,1018,0,,,20.3,19.1,新北市,6,新莊區,33,2021/12/17 9:00,2021/12/17
22.545194,120.4535,22.5434,120.4615583,新園,C0R560,2021/12/17 10:00,22,0,0.1,23.9,0.72,1015.5,0,,,23.9,18.4,屏東縣,20,新園鄉,333,2021/12/17 10:00,2021/12/17
24.940806,121.3615,24.939025,121.3697278,三峽,C0AC60,2021/12/17 2:00,55,0,0,19.3,0.98,1012.5,0,,,19.8,19.3,新北市,6,三峽區,57,2021/12/17 2:00,2021/12/17
23.127417,120.195083,23.12560833,120.2031083,西港,C0X140,2021/12/17 5:00,17,44,1.8,19.6,0.93,1014.3,0,,,20.7,19.6,臺南市,4,西港區,256,2021/12/17 5:00,2021/12/17
24.274222,120.650306,24.27248056,120.6583139,神岡,C0F9I0,2021/12/17 4:00,194,17,1.3,18.1,0.93,994.4,0,,,18.9,18.1,臺中市,2,神岡區,114,2021/12/17 4:00,2021/12/17
22.072925,120.756094,22.07112222,120.7641111,保力,C0R770,2021/12/17 6:00,93,86,1.9,19.9,0.91,1005.4,0,,,20.1,17.1,屏東縣,20,車城鄉,349,2021/12/17 6:00,2021/12/17
22.418014,120.9189,22.41621111,120.9269417,加津林,C0S970,2021/12/17 1:00,19,290,2.3,21.1,0.84,1014.1,0,,,21.7,21,臺東縣,22,大武鄉,342,2021/12/17 1:00,2021/12/17
22.320422,120.849339,22.31861944,120.8573722,山豬窟,C0S990,2021/12/17 14:00,409,23,6.7,20.9,0.87,970.3,0,13.4,15,22.6,18.8,臺東縣,22,大武鄉,342,2021/12/17 14:00,2021/12/17
24.899333,121.784231,24.89753611,121.7924444,鶯子嶺,C0U950,2021/12/17 8:00,1012,317,6.9,12.9,1,907.5,7,13.4,325,14.4,12.9,宜蘭縣,7,頭城鎮,51,2021/12/17 8:00,2021/12/17
22.702861,120.339667,22.70108333,120.3477222,仁武,C0V680,2021/12/17 5:00,40,4,0.5,19.3,0.96,1011.4,0,,,21,18.7,高雄市,5,仁武區,306,2021/12/17 5:00,2021/12/17
22.963028,120.180417,22.96118889,120.1883778,臺南市南區,C0X110,2021/12/17 4:00,20,46,2.9,20.7,0.85,1014.2,0,,,21.1,20.5,臺南市,4,南區,281,2021/12/17 4:00,2021/12/17
23.460653,120.145722,23.45891111,120.1538306,東石,C0M710,2021/12/17 9:00,15,6,5.5,21.9,0.78,1015.8,0,12.1,14,21.9,20,嘉義縣,17,東石鄉,216,2021/12/17 9:00,2021/12/17
23.346047,121.295197,23.34425,121.3033028,卓溪,C0Z170,2021/12/17 5:00,199,258,0.5,15.4,0.99,998.2,0,,,16.4,15,花蓮縣,21,卓溪鄉,207,2021/12/17 5:00,2021/12/17
23.905067,120.367928,23.90331944,120.3760694,二林,C0G730,2021/12/17 7:00,27,14,5.7,20.1,0.88,1015.1,0,,,20.1,19.2,彰化縣,14,二林鎮,155,2021/12/17 7:00,2021/12/17
22.824944,120.228806,22.82315,120.2368556,永安,C0V620,2021/12/17 14:00,18,343,3.2,26.5,0.56,1012.7,0,,,27.3,19.5,高雄市,5,永安區,293,2021/12/17 14:00,2021/12/17
24.123139,121.265361,24.12132222,121.2736417,昆陽,C0H990,2021/12/17 2:00,3076,227,5.4,3.9,0.62,707.3,0,,,4,3.8,南投縣,13,仁愛鄉,122,2021/12/17 2:00,2021/12/17
23.077444,120.355194,23.0757,120.3632528,山上,C0X180,2021/12/17 10:00,62,0,0.2,22.4,0.9,1009,0,,,22.4,17.7,臺南市,4,山上區,260,2021/12/17 10:00,2021/12/17
23.948333,120.577528,23.94650278,120.5855972,員林,C0G650,2021/12/17 6:00,34,18,1.1,19.2,0.94,1013.1,0,,,20.1,19.1,彰化縣,14,員林市,156,2021/12/17 6:00,2021/12/17
22.291944,120.881944,22.279725,120.8892083,南田,C0S840,2021/12/17 7:00,22,0,0,20.4,0.86,1016.8,0,,,20.8,19.2,臺東縣,22,達仁鄉,337,2021/12/17 7:00,2021/12/17
24.349917,120.632361,24.34766667,120.6404028,大甲,C0F930,2021/12/17 10:00,100,21,1,19.5,0.73,1006.5,0,,,19.9,18.5,臺中市,2,大甲區,105,2021/12/17 10:00,2021/12/17
22.545194,120.4535,22.5434,120.4615583,新園,C0R560,2021/12/17 2:00,22,301,1.8,20.5,0.92,1014.1,0,,,21.2,20.5,屏東縣,20,新園鄉,333,2021/12/17 2:00,2021/12/17
22.740278,120.438611,22.73857778,120.4467972,溪埔,C0V350,2021/12/17 5:00,36,248,0.5,15.4,1,1012.7,0,,,17.8,15.4,高雄市,5,大樹區,300,2021/12/17 5:00,2021/12/17
23.269517,120.117367,23.26777222,120.1254806,北門,C0X290,2021/12/17 8:00,10,31,6.3,20.6,0.86,1015.8,0,,,21.1,19.9,臺南市,4,北門區,237,2021/12/17 8:00,2021/12/17
23.390872,120.708528,23.389125,120.7166472,里佳,C0M810,2021/12/17 14:00,1354,314,1.2,18.7,0.77,867.2,0,,,20.1,13.4,嘉義縣,17,阿里山鄉,208,2021/12/17 14:00,2021/12/17
24.345722,121.648142,24.34392222,121.6563167,和平林道,C0Z220,2021/12/17 14:00,589,247,1.1,17,0.75,952.2,0,,,21.2,14.6,花蓮縣,21,秀林鄉,108,2021/12/17 14:00,2021/12/17
22.123631,120.828758,22.121825,120.8367806,高士,C0R830,2021/12/17 7:00,383,47,4.5,19.4,0.84,972.7,0,10.3,52,19.4,19,屏東縣,20,牡丹鄉,347,2021/12/17 7:00,2021/12/17
24.899333,121.784231,24.89753611,121.7924444,鶯子嶺,C0U950,2021/12/17 1:00,1012,320,7.7,14.2,1,906.1,0,,,14.2,13.8,宜蘭縣,7,頭城鎮,51,2021/12/17 1:00,2021/12/17
23.114444,120.289444,23.11288333,120.2972194,善化,C0O900,2021/12/17 12:00,9,359,3.7,25.4,0.67,1014.7,0,,,25.4,18.7,臺南市,4,善化區,255,2021/12/17 12:00,2021/12/17
24.523767,121.824986,24.52195833,121.833175,東澳,C0U760,2021/12/17 6:00,22,347,0.4,20.4,0.87,1017.5,0,,,20.8,16.6,宜蘭縣,7,南澳鄉,93,2021/12/17 6:00,2021/12/17
22.522769,120.883803,22.52096944,120.89185,歷坵,C0SA00,2021/12/17 5:00,466,297,1.4,15.8,0.98,964,0,,,16.3,15.3,臺東縣,22,太麻里鄉,312,2021/12/17 5:00,2021/12/17
24.150528,120.476167,24.14893333,120.4844028,伸港,C0G890,2021/12/17 13:00,24,15,10.9,20.1,0.74,1013.8,0,25.1,34,21.5,20,彰化縣,14,伸港鄉,126,2021/12/17 13:00,2021/12/17
24.13355,121.287556,24.13176389,121.2957167,小奇萊,C0I530,2021/12/17 10:00,3014,214,3.6,6.7,0.52,703.9,0,,,7.7,2.1,南投縣,13,仁愛鄉,122,2021/12/17 10:00,2021/12/17
24.529611,121.510844,24.52781944,121.5190306,白嶺,C0UA30,2021/12/17 12:00,1397,78,1.2,11.3,1,866.2,0,,,13.1,11.3,宜蘭縣,7,大同鄉,81,2021/12/17 12:00,2021/12/17
24.035,121.173333,24.03331111,121.1818083,廬山,C0I010,2021/12/17 15:00,1562,150,0.8,20.2,0.42,849.2,0,,,21.9,9.6,南投縣,13,仁愛鄉,122,2021/12/17 15:00,2021/12/17
22.694833,120.534611,22.69312778,120.5426222,長治,C0R480,2021/12/17 5:00,57,58,1.2,17.5,1,1009.4,0,,,19.9,17.5,屏東縣,20,長治鄉,307,2021/12/17 5:00,2021/12/17
22.594139,120.60625,22.59233333,120.6143056,赤山,C0R190,2021/12/17 6:00,32,28,0.7,16.9,0.99,1011.2,0,,,18.8,16.6,屏東縣,20,萬巒鄉,319,2021/12/17 6:00,2021/12/17
22.824944,120.228806,22.82315,120.2368556,永安,C0V620,2021/12/17 5:00,18,32,2,20.1,0.92,1014.4,0,,,20.6,20.1,高雄市,5,永安區,293,2021/12/17 5:00,2021/12/17
22.206281,120.742964,22.20448056,120.7509889,丹路,C0R800,2021/12/17 0:00,131,0,0,19.6,0.93,1001.2,0,,,26,19.6,屏東縣,20,獅子鄉,344,2021/12/17 0:00,2021/12/17
22.994972,120.144111,22.99316111,120.1521806,安平,C0X190,2021/12/17 5:00,10,25,1.8,19.8,0.86,1014.4,0,8.7,32,20.7,19.8,臺南市,4,安平區,276,2021/12/17 5:00,2021/12/17
22.48,120.935278,22.478475,120.943325,大溪山,C0S770,2021/12/17 4:00,375,357,0.4,19.2,0.93,974.1,0,,,19.3,17.9,臺東縣,22,太麻里鄉,312,2021/12/17 4:00,2021/12/17
22.744444,120.735556,22.74290833,120.7436778,阿禮,C0R130,2021/12/17 15:00,1040,258,1.1,22.4,0.55,897.6,0,,,25,15.9,屏東縣,20,霧臺鄉,292,2021/12/17 15:00,2021/12/17
23.737072,121.411994,23.73526944,121.4201306,鳳林山,C0T9G0,2021/12/17 3:00,605,0,0,16.7,0.94,950.6,0,,,17.4,16.6,花蓮縣,21,鳳林鎮,184,2021/12/17 3:00,2021/12/17
24.138861,120.630111,24.13700556,120.6379694,南屯,C0F9U0,2021/12/17 6:00,74,43,1.8,20.1,0.81,1009.6,0,,,20.3,20,臺中市,2,南屯區,129,2021/12/17 6:00,2021/12/17
22.907694,120.68,22.90594444,120.6880556,萬山,C0V790,2021/12/17 5:00,410,27,2.3,17,0.82,968.4,0,,,18.2,17,高雄市,5,茂林區,278,2021/12/17 5:00,2021/12/17
24.268567,121.732861,24.26676111,121.7410306,和中,C0T9D0,2021/12/17 1:00,7,0,0,17.8,0.99,1016.7,0,,,17.9,17.7,花蓮縣,21,秀林鄉,108,2021/12/17 1:00,2021/12/17
24.245,121.237667,24.24752222,121.2436694,梨山,C0F860,2021/12/17 5:00,2215,175,0.4,7.7,0.61,783.5,0,,,9.4,7.5,臺中市,2,和平區,104,2021/12/17 5:00,2021/12/17
23.127417,120.195083,23.12560833,120.2031083,西港,C0X140,2021/12/17 13:00,17,350,1.7,24.9,0.59,1014,0,7.1,20,25.8,18.7,臺南市,4,西港區,256,2021/12/17 13:00,2021/12/17
22.454908,120.879528,22.45310833,120.8875722,土阪,C0SA80,2021/12/17 11:00,136,101,1.6,25.2,0.57,1002.2,0,,,25.2,17.3,臺東縣,22,達仁鄉,337,2021/12/17 11:00,2021/12/17
22.907694,120.68,22.90594444,120.6880556,萬山,C0V790,2021/12/17 1:00,410,34,3,18,0.86,969,0,,,18.2,18,高雄市,5,茂林區,278,2021/12/17 1:00,2021/12/17
23.149036,120.078164,23.14728889,120.0862528,七股,C0X310,2021/12/17 15:00,9,14,11.1,21.2,0.71,1015.2,0,,,23,19.6,臺南市,4,七股區,253,2021/12/17 15:00,2021/12/17
24.076944,120.422222,24.0753,120.4304806,鹿港,C0G640,2021/12/17 0:00,17,18,3.3,20.7,0.99,1016.5,0,,,24,18.1,彰化縣,14,鹿港鎮,140,2021/12/17 0:00,2021/12/17
24.802436,121.805683,24.80063611,121.8138917,大福,C0U970,2021/12/17 4:00,7,199,0.6,20.6,0.92,1018.7,0,,,20.9,19.4,宜蘭縣,7,壯圍鄉,72,2021/12/17 4:00,2021/12/17
23.680478,120.470231,23.678725,120.4783472,斗南,C0K460,2021/12/17 11:00,60,19,6,23,0.64,1009.2,0,,,23.2,18.3,雲林縣,16,斗南鎮,193,2021/12/17 11:00,2021/12/17
24.953,121.33725,24.95153333,121.3462944,鶯歌,C0AD50,2021/12/17 2:00,84,326,0.7,18.9,0.92,1009.7,0,,,19.4,18.9,新北市,6,鶯歌區,54,2021/12/17 2:00,2021/12/17
23.456792,120.323303,23.45504722,120.3314389,太保,C0M680,2021/12/17 12:00,37,347,3,24,0.63,1013.9,0,9.9,343,24.9,18.5,嘉義縣,17,太保市,218,2021/12/17 12:00,2021/12/17
23.185056,120.2405,23.18328889,120.2486111,麻豆,C0X120,2021/12/17 14:00,28,347,4.8,23.7,0.66,1012.8,0,,,25,18.8,臺南市,4,麻豆區,247,2021/12/17 14:00,2021/12/17
24.451153,121.802036,24.44934722,121.8102194,南澳,C0U770,2021/12/17 13:00,5,157,1.5,19.5,0.76,1019.4,0,10.8,331,21.1,17.9,宜蘭縣,7,南澳鄉,93,2021/12/17 13:00,2021/12/17
24.996081,119.441347,24.9944,119.4495556,烏坵,C0W160,2021/12/17 0:00,49,33,10.7,18.3,0.94,1009.9,0,,,19.9,17.5,金門縣,99,烏坵鄉,999,2021/12/17 0:00,2021/12/17
24.940806,121.3615,24.939025,121.3697278,三峽,C0AC60,2021/12/17 0:00,55,0,0,19.9,0.97,1012.2,0,,,28.2,17.1,新北市,6,三峽區,57,2021/12/17 0:00,2021/12/17
24.866578,121.76575,24.86478056,121.7739611,坪林石牌,C0U980,2021/12/17 7:00,573,6,1.2,15.8,1,955.5,1,,,16.3,15.1,宜蘭縣,7,頭城鎮,51,2021/12/17 7:00,2021/12/17
24.105556,120.743333,24.10355556,120.7510611,中竹林,C0F9A0,2021/12/17 11:00,425,4,1.3,23.5,0.77,969.4,0,,,23.8,16.2,臺中市,2,太平區,130,2021/12/17 11:00,2021/12/17
22.206281,120.742964,22.20448056,120.7509889,丹路,C0R800,2021/12/17 9:00,131,94,3,23.2,0.64,1002.6,0,11.6,106,23.2,18.9,屏東縣,20,獅子鄉,344,2021/12/17 9:00,2021/12/17
23.121389,121.201667,23.11962778,121.2094694,池上,C0S740,2021/12/17 0:00,289,0,0.1,14.7,0.97,985.1,0,,,27.7,13.8,臺東縣,22,池上鄉,257,2021/12/17 0:00,2021/12/17
23.564311,119.460328,23.5626,119.4684361,西嶼,C0W120,2021/12/17 10:00,58,19,13.4,21.2,0.79,1012.3,0,19.9,20,21.6,20.7,澎湖縣,23,西嶼鄉,200,2021/12/17 10:00,2021/12/17
23.676692,120.244675,23.67495,120.2528,雲林東勢,C0K520,2021/12/17 9:00,10,19,4,21.7,0.76,1015.3,0,12.4,25,21.7,19.7,雲林縣,16,東勢鄉,192,2021/12/17 9:00,2021/12/17
22.711667,120.631889,22.70988889,120.6399444,三地門,C0R150,2021/12/17 5:00,105,41,1.2,17.9,1,1002.5,0,,,21.4,17.5,屏東縣,20,內埔鄉,310,2021/12/17 5:00,2021/12/17
24.608056,120.775556,24.60648889,120.7839333,後龍,C0E540,2021/12/17 14:00,32,36,6.1,18.4,0.72,1016,0,15,35,20.9,18.2,苗栗縣,11,後龍鎮,91,2021/12/17 14:00,2021/12/17
22.762444,120.25925,22.76055833,120.2672111,梓官,C0V610,2021/12/17 7:00,22,1,2.2,19.4,0.94,1013.6,0,,,21.1,19.4,高雄市,5,梓官區,303,2021/12/17 7:00,2021/12/17
24.866578,121.76575,24.86478056,121.7739611,坪林石牌,C0U980,2021/12/17 0:00,573,221,3.8,14.7,1,953.5,0,,,24.8,14.4,宜蘭縣,7,頭城鎮,51,2021/12/17 0:00,2021/12/17
23.897478,120.933219,23.89570278,120.94135,魚池,C0I370,2021/12/17 0:00,671,0,0,17.1,1,942.7,0,,,27.9,12.9,南投縣,13,魚池鄉,164,2021/12/17 0:00,2021/12/17
22.963028,120.180417,22.96118889,120.1883778,臺南市南區,C0X110,2021/12/17 8:00,20,61,3.8,20.2,0.83,1015.5,0,,,21.1,19.9,臺南市,4,南區,281,2021/12/17 8:00,2021/12/17
22.759583,120.297694,22.75780556,120.30575,橋頭,C0V760,2021/12/17 4:00,30,34,2.1,20.2,0.97,1012.7,0,,,20.7,19.4,高雄市,5,橋頭區,299,2021/12/17 4:00,2021/12/17
23.973944,120.944278,23.97216944,120.952425,埔里,C0H890,2021/12/17 11:00,440,253,0.7,24,0.5,965.5,0,,,24,14.1,南投縣,13,埔里鎮,147,2021/12/17 11:00,2021/12/17
22.669025,121.467267,22.66720278,121.4753278,綠島,C0S730,2021/12/17 5:00,110,81,7.9,22.6,0.88,1003.5,0,,,22.6,21.4,臺東縣,22,綠島鄉,315,2021/12/17 5:00,2021/12/17
22.456067,120.658178,22.454275,120.6662194,白鷺,C0R820,2021/12/17 1:00,588,87,1.1,17.1,0.96,950.4,0,,,17.4,17.1,屏東縣,20,來義鄉,331,2021/12/17 1:00,2021/12/17
24.894394,121.737519,24.8926,121.7457361,四堵,C0A540,2021/12/17 12:00,401,356,0.7,15.7,1,974.7,3.5,,,17.4,15.4,新北市,6,坪林區,53,2021/12/17 12:00,2021/12/17
24.843392,121.944947,24.84166667,121.9531333,龜山島,C0U750,2021/12/17 9:00,398,0,0,16.7,1,974.1,1,,,18.5,16.4,宜蘭縣,7,頭城鎮,51,2021/12/17 9:00,2021/12/17
25.092031,121.494792,25.09025278,121.5030194,士林,C0A9E0,2021/12/17 15:00,26,33,1.2,17.9,0.65,1019.9,0,,,20.6,17.9,臺北市,1,士林區,7,2021/12/17 15:00,2021/12/17
22.026433,120.685536,22.02463333,120.69355,大坪頂,C0R730,2021/12/17 11:00,163,53,4.6,25.8,0.57,997.6,0,14.1,68,25.8,19.2,屏東縣,20,恆春鎮,350,2021/12/17 11:00,2021/12/17
23.494611,120.2825,23.49286389,120.2906111,六腳,C0M740,2021/12/17 12:00,15,4,4.4,23.1,0.67,1014.3,0,10.4,356,23.5,18.6,嘉義縣,17,六腳鄉,214,2021/12/17 12:00,2021/12/17
22.973611,121.298333,22.97267222,121.3039861,東河,C0S810,2021/12/17 8:00,65,333,2.8,19.7,0.83,1013.3,0,,,19.7,17.6,臺東縣,22,東河鄉,264,2021/12/17 8:00,2021/12/17
23.882433,121.573839,23.88062778,121.5819806,大坑,C0T9E0,2021/12/17 15:00,415,44,2.2,16.1,0.89,971.6,0,,,18.8,16,花蓮縣,21,壽豐鄉,161,2021/12/17 15:00,2021/12/17
24.719928,121.679461,24.71813333,121.6876639,內城,C0U900,2021/12/17 12:00,63,0,0.1,18,0.95,1015.8,1,,,19.6,18,宜蘭縣,7,員山鄉,74,2021/12/17 12:00,2021/12/17
22.072925,120.756094,22.07112222,120.7641111,保力,C0R770,2021/12/17 7:00,93,90,0.8,20.7,0.84,1005.7,0,,,20.7,17.1,屏東縣,20,車城鄉,349,2021/12/17 7:00,2021/12/17
23.25,120.978056,23.24839722,120.9861333,向陽,C0S750,2021/12/17 1:00,2280,275,1.2,5.9,0.84,775.9,0,,,6,5.9,臺東縣,22,海端鄉,240,2021/12/17 1:00,2021/12/17
23.747917,121.445278,23.74611389,121.4534111,鳳林,C0Z160,2021/12/17 14:00,124,19,4.6,20.1,0.84,1006.2,0,12.4,29,23.3,16.1,花蓮縣,21,鳳林鎮,184,2021/12/17 14:00,2021/12/17
23.216733,120.127656,23.21497222,120.1357611,將軍,C0X280,2021/12/17 4:00,22,43,4.4,19.5,0.91,1013.7,0,,,20.7,19.5,臺南市,4,將軍區,245,2021/12/17 4:00,2021/12/17
24.850056,121.589639,24.84822222,121.5979917,桶後,C0A570,2021/12/17 4:00,360,0,0,16.4,0.97,978.3,0,,,16.4,15.9,新北市,6,烏來區,61,2021/12/17 4:00,2021/12/17
23.585708,121.506678,23.58389722,121.5148056,豐濱,C0T9I0,2021/12/17 4:00,152,213,1,18.2,0.85,1000.5,0,,,18.8,17.8,花蓮縣,21,豐濱鄉,188,2021/12/17 4:00,2021/12/17
22.99975,120.625528,22.99788889,120.6335833,六龜,C0V800,2021/12/17 2:00,256,0,0.1,18,0.93,984.8,0,,,18.6,18,高雄市,5,六龜區,259,2021/12/17 2:00,2021/12/17
22.856639,120.251361,22.85499722,120.2594389,路竹,C0V750,2021/12/17 10:00,50,3,2.4,22.8,0.71,1011.7,0,,,22.8,19.3,高雄市,5,路竹區,288,2021/12/17 10:00,2021/12/17
22.432667,120.502083,22.43083611,120.5099833,林邊,C0R530,2021/12/17 15:00,16,220,2.9,26,0.62,1011.7,0,,,26.2,19,屏東縣,20,林邊鄉,340,2021/12/17 15:00,2021/12/17
25.073953,121.372611,25.07218056,121.3808389,林口,C0AH50,2021/12/17 10:00,275,12,4,15.9,0.88,990.3,0,11.5,7,19,15.9,新北市,6,林口區,16,2021/12/17 10:00,2021/12/17
23.216733,120.127656,23.21497222,120.1357611,將軍,C0X280,2021/12/17 9:00,22,39,4.6,21.4,0.8,1015.2,0,,,21.4,18.8,臺南市,4,將軍區,245,2021/12/17 9:00,2021/12/17
24.76925,121.049861,24.76714722,121.0578806,竹東,C0D560,2021/12/17 14:00,147,35,3.2,17.1,0.77,1003.6,0,10.6,34,20.1,17,新竹縣,10,竹東鎮,73,2021/12/17 14:00,2021/12/17
24.974944,121.436917,24.97320833,121.4451694,土城,C0AD40,2021/12/17 7:00,32,3,1.1,19.6,0.88,1017.1,0,,,20.1,18.4,新北市,6,土城區,49,2021/12/17 7:00,2021/12/17
24.415731,121.775067,24.413925,121.7832472,樟樹山,C0UA60,2021/12/17 5:00,566,13,1.6,15.7,0.96,953.3,0,,,17.3,15.7,宜蘭縣,7,南澳鄉,93,2021/12/17 5:00,2021/12/17
24.2201,121.680972,24.21829444,121.6891417,清水斷崖,C0Z310,2021/12/17 2:00,59,326,0.9,19.6,0.99,1011,0,,,20.2,19.6,花蓮縣,21,秀林鄉,108,2021/12/17 2:00,2021/12/17
24.459339,118.320831,24.45770278,118.3289889,金寧,C0W150,2021/12/17 10:00,42,52,7.1,19.5,0.79,1017.1,0,13.5,49,20.4,19.3,金門縣,99,金寧鄉,999,2021/12/17 10:00,2021/12/17
23.269517,120.117367,23.26777222,120.1254806,北門,C0X290,2021/12/17 13:00,10,16,8.4,21.6,0.72,1014.8,0,14.8,15,22.7,19.9,臺南市,4,北門區,237,2021/12/17 13:00,2021/12/17
25.073953,121.372611,25.07218056,121.3808389,林口,C0AH50,2021/12/17 2:00,275,14,2.9,18.3,0.95,987.1,0,,,19,18.3,新北市,6,林口區,16,2021/12/17 2:00,2021/12/17
22.464244,120.432703,22.46246667,120.4407444,東港,C0R640,2021/12/17 5:00,21,30,2,20,0.94,1014.1,0,,,21.8,20,屏東縣,20,東港鎮,339,2021/12/17 5:00,2021/12/17
24.800436,120.978742,24.79868056,120.9869417,新竹市東區,C0D660,2021/12/17 11:00,65,38,3.2,18.2,0.76,1013.7,0,11.4,31,20.9,18.2,新竹市,15,東區,70,2021/12/17 11:00,2021/12/17
24.453056,120.921944,24.45127222,120.9301917,馬都安,C0E610,2021/12/17 10:00,850,360,0.6,15.5,0.86,923.8,0,,,16.7,13.2,苗栗縣,11,泰安鄉,101,2021/12/17 10:00,2021/12/17
21.995386,120.853619,21.99357778,120.8616333,佳樂水,C0R680,2021/12/17 11:00,13,54,5.9,25.5,0.68,1014.8,0,11.9,62,25.5,22,屏東縣,20,滿州鄉,348,2021/12/17 11:00,2021/12/17
22.970111,120.249778,22.96825833,120.2576889,仁德,C0X160,2021/12/17 11:00,26,8,3,23.8,0.71,1013.6,0,,,23.8,19.1,臺南市,4,仁德區,279,2021/12/17 11:00,2021/12/17
24.619833,120.94055,24.61806944,120.9485778,大河,C0E850,2021/12/17 12:00,104,32,2.2,17.6,0.78,1007.6,0,8,52,19.2,16.4,苗栗縣,11,三灣鄉,88,2021/12/17 12:00,2021/12/17
22.569219,120.951617,22.56741944,120.9596667,金崙山,C0SA20,2021/12/17 0:00,857,20,2.5,15.8,1,921.3,0,,,19.3,14.6,臺東縣,22,太麻里鄉,312,2021/12/17 0:00,2021/12/17
24.529611,121.510844,24.52781944,121.5190306,白嶺,C0UA30,2021/12/17 2:00,1397,0,0,12.9,0.98,865.6,0,,,13.1,12.7,宜蘭縣,7,大同鄉,81,2021/12/17 2:00,2021/12/17
24.035,121.173333,24.03331111,121.1818083,廬山,C0I010,2021/12/17 11:00,1562,158,1.5,20,0.38,850.9,0,,,20,9.6,南投縣,13,仁愛鄉,122,2021/12/17 11:00,2021/12/17
24.248194,120.824917,24.24642778,120.8330472,東勢,C0F850,2021/12/17 11:00,379,16,2.1,21.2,0.74,974,0,7.6,333,21.5,14.2,臺中市,2,東勢區,113,2021/12/17 11:00,2021/12/17
25.092031,121.494792,25.09025278,121.5030194,士林,C0A9E0,2021/12/17 4:00,26,183,0.9,20,0.86,1016.7,0,,,20.2,19.4,臺北市,1,士林區,7,2021/12/17 4:00,2021/12/17
24.415731,121.775067,24.413925,121.7832472,樟樹山,C0UA60,2021/12/17 6:00,566,360,2.1,15.9,0.98,953.9,0,,,17.3,15.7,宜蘭縣,7,南澳鄉,93,2021/12/17 6:00,2021/12/17
23.371644,120.239936,23.36989167,120.2480472,東後寮,C0M520,2021/12/17 13:00,15,20,5.4,23.1,0.63,1013.6,0,11.7,14,24.2,18.4,嘉義縣,17,義竹鄉,229,2021/12/17 13:00,2021/12/17
22.963028,120.180417,22.96118889,120.1883778,臺南市南區,C0X110,2021/12/17 9:00,20,50,3.4,21.6,0.75,1015.8,0,9,2,21.6,19.9,臺南市,4,南區,281,2021/12/17 9:00,2021/12/17
24.964408,121.880658,24.96260556,121.888875,桃源谷,C0UA70,2021/12/17 8:00,547,20,5.9,15.3,0.99,958.6,6.5,12.8,5,17,15.3,宜蘭縣,7,頭城鎮,51,2021/12/17 8:00,2021/12/17
24.680119,121.200361,24.67834722,121.2085583,梅花,C0D360,2021/12/17 9:00,523,0,0,16,0.84,959.6,0,,,16,12.4,新竹縣,10,尖石鄉,77,2021/12/17 9:00,2021/12/17
24.923619,121.536533,24.92183611,121.544725,屈尺,C0AI10,2021/12/17 9:00,76,18,1.7,18.8,0.86,1012.7,0,,,19.3,18.2,新北市,6,新店區,50,2021/12/17 9:00,2021/12/17
24.609,120.817906,24.60725,120.8260944,高鐵苗栗,C0E870,2021/12/17 11:00,34,37,5.1,19,0.78,1018.1,0,15.6,38,20.3,19,苗栗縣,11,後龍鎮,91,2021/12/17 11:00,2021/12/17
24.63875,120.856583,24.63705556,120.8647778,造橋,C0E740,2021/12/17 8:00,27,41,2.4,20,0.82,1015.6,0,,,20.3,18.4,苗栗縣,11,造橋鄉,90,2021/12/17 8:00,2021/12/17
24.105556,120.743333,24.10355556,120.7510611,中竹林,C0F9A0,2021/12/17 8:00,425,55,0.8,18.7,0.89,969.4,0,,,18.7,16.2,臺中市,2,太平區,130,2021/12/17 8:00,2021/12/17
22.970111,120.249778,22.96825833,120.2576889,仁德,C0X160,2021/12/17 14:00,26,329,5.8,24.6,0.65,1011.4,0,,,25.8,19.1,臺南市,4,仁德區,279,2021/12/17 14:00,2021/12/17
24.63875,120.856583,24.63705556,120.8647778,造橋,C0E740,2021/12/17 5:00,27,36,1.3,19.6,0.91,1014.4,0,,,19.6,18.4,苗栗縣,11,造橋鄉,90,2021/12/17 5:00,2021/12/17
24.041264,121.596386,24.03946111,121.6045389,新城,C0Z180,2021/12/17 6:00,34,0,0.2,18.8,0.99,1015.4,0,,,19.1,18.5,花蓮縣,21,新城鄉,136,2021/12/17 6:00,2021/12/17
24.603167,120.992083,24.601775,121.0002139,南庄,C0E430,2021/12/17 12:00,258,360,3.7,16.6,0.82,993.1,0,9.8,20,18.2,14.6,苗栗縣,11,南庄鄉,92,2021/12/17 12:00,2021/12/17
24.993403,121.483569,24.99162222,121.4917917,中和,C0AG80,2021/12/17 11:00,48,38,0.7,19.3,0.78,1016.5,0,,,20.8,19.1,新北市,6,中和區,48,2021/12/17 11:00,2021/12/17
22.026433,120.685536,22.02463333,120.69355,大坪頂,C0R730,2021/12/17 1:00,163,85,1.3,19.5,0.94,997.7,0,,,19.6,19.5,屏東縣,20,恆春鎮,350,2021/12/17 1:00,2021/12/17
23.903417,120.501389,23.90166944,120.5093889,田尾,C0G820,2021/12/17 9:00,29,26,1.1,22.3,0.79,1014.7,0,7.5,53,22.3,18.2,彰化縣,14,田尾鄉,167,2021/12/17 9:00,2021/12/17
23.104417,120.219972,23.10261389,120.2278389,安定,C0X150,2021/12/17 14:00,18,7,4.9,24.3,0.67,1014.2,0,10.7,4,25.7,19,臺南市,4,安定區,261,2021/12/17 14:00,2021/12/17
22.469778,120.574833,22.46794722,120.5828944,新埤,C0R550,2021/12/17 12:00,38,274,0.9,26,0.77,1011,0,,,26,17.3,屏東縣,20,新埤鄉,336,2021/12/17 12:00,2021/12/17
24.186278,120.520833,24.18453611,120.5289722,龍井,C0F9R0,2021/12/17 9:00,20,46,4.7,21.2,0.71,1017.1,0,12.7,36,21.2,20.1,臺中市,2,龍井區,115,2021/12/17 9:00,2021/12/17
22.083031,121.495094,22.08119444,121.5031167,蘭嶼燈塔,C0S910,2021/12/17 11:00,212,47,2.5,23.5,0.84,993.3,0,14.9,6,23.8,21.9,臺東縣,22,蘭嶼鄉,351,2021/12/17 11:00,2021/12/17
23.127417,120.195083,23.12560833,120.2031083,西港,C0X140,2021/12/17 1:00,17,26,2,20.6,0.94,1015.2,0,,,20.7,20.3,臺南市,4,西港區,256,2021/12/17 1:00,2021/12/17
22.785583,120.238278,22.78380556,120.2463611,彌陀,C0V650,2021/12/17 15:00,28,358,6,25.3,0.67,1013.4,0,11.8,13,27.1,19.1,高雄市,5,彌陀區,298,2021/12/17 15:00,2021/12/17
25.086111,121.2575,25.084275,121.2657667,蘆竹,C0C620,2021/12/17 3:00,19,30,1.6,20.2,0.87,1015.8,0,,,20.7,20.1,桃園市,8,蘆竹區,20,2021/12/17 3:00,2021/12/17
23.149036,120.078164,23.14728889,120.0862528,七股,C0X310,2021/12/17 12:00,9,6,11.4,22.3,0.73,1016.5,0,,,23,19.6,臺南市,4,七股區,253,2021/12/17 12:00,2021/12/17
24.349917,120.632361,24.34766667,120.6404028,大甲,C0F930,2021/12/17 6:00,100,46,0.6,19.1,0.88,1005.6,0,,,19.4,18.5,臺中市,2,大甲區,105,2021/12/17 6:00,2021/12/17
24.041264,121.596386,24.03946111,121.6045389,新城,C0Z180,2021/12/17 5:00,34,0,0,18.5,0.99,1014.7,0,,,19.1,18.5,花蓮縣,21,新城鄉,136,2021/12/17 5:00,2021/12/17
22.077883,120.828758,22.076075,120.8367944,檳榔,C0R280,2021/12/17 11:00,242,65,4.1,22.5,0.77,988.8,0,12.1,47,22.5,18.8,屏東縣,20,滿州鄉,348,2021/12/17 11:00,2021/12/17
24.4167,120.862694,24.41493889,120.8708722,大湖,C0E520,2021/12/17 9:00,320,317,1.1,18.8,0.92,982.4,0,,,18.8,13.8,苗栗縣,11,大湖鄉,103,2021/12/17 9:00,2021/12/17
23.346047,121.295197,23.34425,121.3033028,卓溪,C0Z170,2021/12/17 1:00,199,0,0.1,16.3,0.99,997.2,0,,,16.4,16.1,花蓮縣,21,卓溪鄉,207,2021/12/17 1:00,2021/12/17
24.365503,121.436489,24.36371389,121.4446667,南湖圈谷A,C0F0E0,2021/12/17 12:00,3557,357,3.8,5.1,0.51,665.6,0,9.1,4,9.1,-1.3,臺中市,2,和平區,104,2021/12/17 12:00,2021/12/17
24.964408,121.880658,24.96260556,121.888875,桃源谷,C0UA70,2021/12/17 10:00,547,6,4.9,14.4,0.99,959.7,15,12.7,34,17,14.4,宜蘭縣,7,頭城鎮,51,2021/12/17 10:00,2021/12/17
22.721528,120.277917,22.71975,120.286,楠梓,C0V670,2021/12/17 4:00,20,357,3.3,19.7,0.95,1013.6,0,,,21,19,高雄市,5,楠梓區,305,2021/12/17 4:00,2021/12/17
25.081206,121.567222,25.07942222,121.57545,內湖,C0A9F0,2021/12/17 5:00,35,170,0.3,20.8,1,1016,0,,,20.8,19.8,臺北市,1,內湖區,21,2021/12/17 5:00,2021/12/17
23.273047,121.180172,23.27125,121.1882722,清水林道,C0Z320,2021/12/17 6:00,646,289,1.4,12.6,0.85,947.3,0,,,12.9,11.8,花蓮縣,21,卓溪鄉,207,2021/12/17 6:00,2021/12/17
24.995758,121.654639,24.99396944,121.6629167,石碇,C0A640,2021/12/17 9:00,241,275,1.1,16.4,0.99,995.9,3,,,18.1,16.4,新北市,6,石碇區,40,2021/12/17 9:00,2021/12/17
23.195028,120.307528,23.19321667,120.3154222,官田,C0X130,2021/12/17 7:00,27,30,1,18.9,1,1012.5,0,,,20.4,18.9,臺南市,4,官田區,248,2021/12/17 7:00,2021/12/17
24.843392,121.944947,24.84166667,121.9531333,龜山島,C0U750,2021/12/17 13:00,398,0,0,14.6,1,973.4,1,,,18.5,14.6,宜蘭縣,7,頭城鎮,51,2021/12/17 13:00,2021/12/17
22.546944,120.3845,22.54506389,120.3925917,鳳森,C0V450,2021/12/17 14:00,51,163,0.3,28,0.48,1007.1,0,,,28.3,17.9,高雄市,5,小港區,330,2021/12/17 14:00,2021/12/17
22.908444,120.174583,22.90664167,120.1826083,茄萣,C0V630,2021/12/17 2:00,19,8,1.5,20.3,0.99,1013.9,0,,,20.7,20.1,高雄市,5,茄萣區,286,2021/12/17 2:00,2021/12/17
23.95175,120.471056,23.94835,120.4791222,溪湖,C0G660,2021/12/17 15:00,27,7,5.2,20.6,0.63,1012.4,0,10.7,355,23.5,18.8,彰化縣,14,溪湖鎮,157,2021/12/17 15:00,2021/12/17
24.094389,120.692194,24.09246389,120.7013778,大里,C0F9N0,2021/12/17 7:00,75,106,0.7,18.1,0.86,1009,0,,,20.1,17.9,臺中市,2,大里區,141,2021/12/17 7:00,2021/12/17
25.039606,121.556372,25.03782222,121.5645972,信義,C0AC70,2021/12/17 13:00,71,68,0.7,17.8,0.77,1013.4,0,,,20.5,17.7,臺北市,1,信義區,38,2021/12/17 13:00,2021/12/17
23.77455,120.400811,23.77279722,120.4089444,二崙,C0K440,2021/12/17 12:00,35,9,10.1,21.7,0.68,1012.8,0,15.2,7,22.5,18.5,雲林縣,16,二崙鄉,180,2021/12/17 12:00,2021/12/17
23.071389,121.12,23.06913056,121.1262194,紅石,C0S760,2021/12/17 4:00,1621,-99,-99,12.6,0.59,842.1,0,,,14.6,12.6,臺東縣,22,海端鄉,240,2021/12/17 4:00,2021/12/17
23.121389,121.201667,23.11962778,121.2094694,池上,C0S740,2021/12/17 15:00,289,41,4.3,21.2,0.74,984.7,0,11.4,47,24.8,12.6,臺東縣,22,池上鄉,257,2021/12/17 15:00,2021/12/17
22.740278,120.438611,22.73857778,120.4467972,溪埔,C0V350,2021/12/17 2:00,36,246,0.3,16.7,1,1012.3,0,,,17.8,16.7,高雄市,5,大樹區,300,2021/12/17 2:00,2021/12/17
23.680478,120.470231,23.678725,120.4783472,斗南,C0K460,2021/12/17 2:00,60,32,3.8,19.3,0.94,1008.9,0,,,19.9,19.3,雲林縣,16,斗南鎮,193,2021/12/17 2:00,2021/12/17
24.939975,121.701531,24.93818333,121.70975,坪林,C0A530,2021/12/17 11:00,300,56,2.1,14.9,0.99,987.3,0,,,16.2,14.9,新北市,6,坪林區,53,2021/12/17 11:00,2021/12/17
23.829972,120.793328,23.82820556,120.8014667,集集,C0I380,2021/12/17 8:00,258,90,1.3,19.3,0.63,986.5,0,,,20.9,16.4,南投縣,13,集集鎮,176,2021/12/17 8:00,2021/12/17
24.451153,121.802036,24.44934722,121.8102194,南澳,C0U770,2021/12/17 10:00,5,109,2,20.5,0.79,1020.3,0,10.2,91,21.1,17.9,宜蘭縣,7,南澳鄉,93,2021/12/17 10:00,2021/12/17
22.610825,120.977275,22.60902222,120.9853278,太麻里,C0S690,2021/12/17 9:00,522,8,0.9,20.4,0.7,959.1,0,,,20.4,18.5,臺東縣,22,太麻里鄉,312,2021/12/17 9:00,2021/12/17
25.098133,121.508275,25.09635556,121.5165056,科教館,C0A770,2021/12/17 2:00,60,86,1.1,19.2,0.88,1013.2,0,,,19.2,18.9,臺北市,1,士林區,7,2021/12/17 2:00,2021/12/17
24.21475,120.695833,24.21310556,120.7039333,潭子,C0F9O0,2021/12/17 0:00,175,0,0.1,19.7,0.92,997.4,0,,,28.2,19.3,臺中市,2,潭子區,123,2021/12/17 0:00,2021/12/17
23.455769,120.741403,23.45399444,120.7495167,達邦,C0M820,2021/12/17 0:00,980,0,0,13.8,0.76,909.1,0,,,22.4,12.6,嘉義縣,17,阿里山鄉,208,2021/12/17 0:00,2021/12/17
24.123139,121.265361,24.12132222,121.2736417,昆陽,C0H990,2021/12/17 12:00,3076,185,3.9,10.6,0.49,707,0,,,10.9,2.4,南投縣,13,仁愛鄉,122,2021/12/17 12:00,2021/12/17
24.256306,120.712333,24.25432222,120.7206917,豐原,C0F9M0,2021/12/17 12:00,230,11,3.3,19.8,0.74,990.6,0,8.9,320,22,18.2,臺中市,2,豐原區,117,2021/12/17 12:00,2021/12/17
24.792836,121.666839,24.79104167,121.6750472,大礁溪,C0U870,2021/12/17 9:00,474,221,0.4,16.6,0.99,967.5,0.5,,,18.4,16.6,宜蘭縣,7,礁溪鄉,65,2021/12/17 9:00,2021/12/17
25.114861,121.792639,25.11316944,121.8011472,瑞芳,C0A660,2021/12/17 9:00,97,347,1,17.9,0.87,1009.9,0,7.1,24,19.7,17.9,新北市,6,瑞芳區,18,2021/12/17 9:00,2021/12/17
23.150164,120.625189,23.14840833,120.63325,小林,C0V820,2021/12/17 8:00,441,22,1.4,18.8,0.69,968,0,,,19,14.3,高雄市,5,甲仙區,251,2021/12/17 8:00,2021/12/17
24.314833,120.816194,24.31276389,120.8247528,卓蘭,C0E790,2021/12/17 0:00,344,0,0.1,17.4,1,977.7,0,,,26.8,16,苗栗縣,11,卓蘭鎮,109,2021/12/17 0:00,2021/12/17
23.071389,121.12,23.06913056,121.1262194,紅石,C0S760,2021/12/17 9:00,1621,-99,-99,12.8,0.82,844.2,0,,,14.6,9.9,臺東縣,22,海端鄉,240,2021/12/17 9:00,2021/12/17
24.819336,121.757397,24.81753889,121.7656083,礁溪,C0U600,2021/12/17 14:00,10,0,0,17,0.95,1019.8,4.5,,,21.6,17,宜蘭縣,7,礁溪鄉,65,2021/12/17 14:00,2021/12/17
24.930528,121.275,24.92870833,121.2832889,八德,C0C490,2021/12/17 9:00,157,29,3,18.1,0.82,1003.3,0,8.3,35,19.6,18.1,桃園市,8,八德區,52,2021/12/17 9:00,2021/12/17
23.762947,120.494247,23.76119167,120.5023722,莿桐,C0K480,2021/12/17 13:00,56,4,6.6,21.7,0.61,1008.8,0,12.1,4,23.3,17.9,雲林縣,16,莿桐鄉,185,2021/12/17 13:00,2021/12/17
24.277822,120.769478,24.27606111,120.7776444,石岡,C0F0B0,2021/12/17 12:00,311,37,4.3,19.2,0.74,981.6,0,11.3,61,20.7,14.7,臺中市,2,石岡區,116,2021/12/17 12:00,2021/12/17
24.964408,121.880658,24.96260556,121.888875,桃源谷,C0UA70,2021/12/17 11:00,547,21,6.9,13.8,0.99,959.6,20,,,17,13.8,宜蘭縣,7,頭城鎮,51,2021/12/17 11:00,2021/12/17
24.964408,121.880658,24.96260556,121.888875,桃源谷,C0UA70,2021/12/17 12:00,547,8,6.2,13.3,0.99,958.8,24,13,25,17,13.3,宜蘭縣,7,頭城鎮,51,2021/12/17 12:00,2021/12/17
23.740156,121.531975,23.73835,121.5401083,蕃薯寮,C0Z270,2021/12/17 14:00,343,47,5.7,17.9,0.84,979.8,0,11.1,51,20.4,17.7,花蓮縣,21,壽豐鄉,161,2021/12/17 14:00,2021/12/17
23.516064,120.221625,23.51431944,120.2297361,蔦松,C0K550,2021/12/17 3:00,15,8,3,19.7,0.9,1014.8,0,,,20.2,19.7,雲林縣,16,水林鄉,204,2021/12/17 3:00,2021/12/17
23.811736,121.531686,23.80992778,121.5398278,月眉山,C0T9A0,2021/12/17 10:00,498,0,0.2,17.7,0.99,964.2,0,,,18.3,15.7,花蓮縣,21,壽豐鄉,161,2021/12/17 10:00,2021/12/17
23.764722,120.677778,23.761225,120.6881556,竹山,C0I110,2021/12/17 13:00,161,307,1.3,26,0.59,995.8,0,,,26.5,16.6,南投縣,13,竹山鎮,178,2021/12/17 13:00,2021/12/17
24.473639,120.696444,24.47189167,120.7046222,通霄,C0E590,2021/12/17 3:00,40,36,1.1,19.8,0.87,1011.5,0,,,20.4,19.7,苗栗縣,11,通霄鎮,98,2021/12/17 3:00,2021/12/17
25.004411,121.734572,25.00271944,121.7428917,火燒寮,C0A650,2021/12/17 2:00,287,0,0,16.4,1,986.3,0.5,,,16.4,16,新北市,6,平溪區,29,2021/12/17 2:00,2021/12/17
24.181389,121.4875,24.17959722,121.4956389,天祥,C0T820,2021/12/17 0:00,550,0,0,13.4,0.99,960.8,0,,,22.9,13.4,花蓮縣,21,秀林鄉,108,2021/12/17 0:00,2021/12/17
24.108833,120.615917,24.10705833,120.6241028,烏日,C0F9S0,2021/12/17 13:00,43,8,8.2,21.8,0.61,1011.4,0,18.5,9,23.2,19.9,臺中市,2,烏日區,137,2021/12/17 13:00,2021/12/17
25.028861,121.145111,25.02707222,121.1533167,觀音,C0C590,2021/12/17 1:00,72,21,2.9,20.3,0.92,1010.3,0,,,20.7,20.3,桃園市,8,觀音區,32,2021/12/17 1:00,2021/12/17
22.890389,120.475528,22.88861389,120.4835972,旗山,C0V740,2021/12/17 6:00,60,21,1.3,17.3,0.94,1010.5,0,,,19.6,17.3,高雄市,5,旗山區,283,2021/12/17 6:00,2021/12/17
23.879222,120.506528,23.87758611,120.5142222,北斗,C0G840,2021/12/17 3:00,32,2,0.4,19.3,0.84,1012.1,0,,,20.5,19.3,彰化縣,14,北斗鎮,171,2021/12/17 3:00,2021/12/17
22.721528,120.277917,22.71975,120.286,楠梓,C0V670,2021/12/17 3:00,20,352,2.7,19.4,0.99,1013.6,0,,,21,19,高雄市,5,楠梓區,305,2021/12/17 3:00,2021/12/17
22.078792,120.794419,22.07698889,120.8024389,四林格山,C0R750,2021/12/17 7:00,551,24,10.7,17.9,0.94,953.6,0,16.8,27,18.1,17.7,屏東縣,20,牡丹鄉,347,2021/12/17 7:00,2021/12/17
23.631111,120.217222,23.63041389,120.227125,四湖,C0K280,2021/12/17 0:00,23,7,3.2,20.3,0.9,1016.9,0,,,27.9,16.6,雲林縣,16,四湖鄉,195,2021/12/17 0:00,2021/12/17
24.201583,120.8075,24.20017222,120.8158056,新社,C0F9V0,2021/12/17 1:00,525,133,1,19.6,0.84,956.3,0,,,19.6,18.6,臺中市,2,新社區,119,2021/12/17 1:00,2021/12/17
22.131817,120.784589,22.13003611,120.7926389,牡丹,C0R340,2021/12/17 12:00,230,24,3.8,24.5,0.71,988.9,0,11.1,4,24.5,17.8,屏東縣,20,牡丹鄉,347,2021/12/17 12:00,2021/12/17
24.201583,120.8075,24.20017222,120.8158056,新社,C0F9V0,2021/12/17 9:00,525,36,2,20.2,0.83,956.6,0,,,20.2,16.3,臺中市,2,新社區,119,2021/12/17 9:00,2021/12/17
22.629111,120.290583,22.62742222,120.2988028,新興,C0V490,2021/12/17 2:00,20,350,1.7,21.5,0.75,1014.1,0,,,22.8,21.5,高雄市,5,新興區,324,2021/12/17 2:00,2021/12/17
23.703283,120.189422,23.70154444,120.1975472,臺西,C0K530,2021/12/17 10:00,12,16,9.7,21.2,0.8,1016.5,0,16.8,8,21.5,20.2,雲林縣,16,臺西鄉,187,2021/12/17 10:00,2021/12/17
25.076228,121.419053,25.07445278,121.4272806,五股,C0AI00,2021/12/17 14:00,188,16,4.2,15.2,0.92,999.9,0,13.7,32,19.2,15.2,新北市,6,五股區,17,2021/12/17 14:00,2021/12/17
24.277822,120.769478,24.27606111,120.7776444,石岡,C0F0B0,2021/12/17 13:00,311,47,5.1,18.9,0.72,980.9,0,11.8,62,20.7,14.7,臺中市,2,石岡區,116,2021/12/17 13:00,2021/12/17
22.646917,120.303278,22.64501667,120.3112333,三民,C0V700,2021/12/17 3:00,24,5,2,19.7,0.91,1012.7,0,,,22.5,19.7,高雄市,5,三民區,314,2021/12/17 3:00,2021/12/17
22.589372,120.985322,22.58756944,120.993375,香蘭,C0S960,2021/12/17 8:00,32,297,1.8,21.2,0.71,1014.8,0,,,22,20.3,臺東縣,22,太麻里鄉,312,2021/12/17 8:00,2021/12/17
23.905067,120.367928,23.90331944,120.3760694,二林,C0G730,2021/12/17 14:00,27,6,10.1,20.1,0.7,1013.7,0,18.2,5,22.2,19.2,彰化縣,14,二林鎮,155,2021/12/17 14:00,2021/12/17
21.933481,120.830933,21.93167222,120.8389417,龍磐,C0R710,2021/12/17 3:00,117,19,4.5,21.7,0.86,1002.5,0,,,22.1,21.4,屏東縣,20,恆春鎮,350,2021/12/17 3:00,2021/12/17
24.736722,121.016769,24.73500556,121.0251917,寶山,C0D580,2021/12/17 11:00,120,0,0,17.9,0.87,1006.6,0,,,19.3,17.7,新竹縣,10,寶山鄉,76,2021/12/17 11:00,2021/12/17
22.590417,120.277889,22.5886,120.2859444,旗津,C0V500,2021/12/17 5:00,6,29,1.5,18.8,0.92,1014.4,0,,,22,18.8,高雄市,5,旗津區,329,2021/12/17 5:00,2021/12/17
23.300847,120.656664,23.299075,120.6647667,茶山,C0M800,2021/12/17 3:00,440,88,0.5,16.8,0.86,966.4,0,,,17.9,16.5,嘉義縣,17,阿里山鄉,208,2021/12/17 3:00,2021/12/17
24.035,121.173333,24.03331111,121.1818083,廬山,C0I010,2021/12/17 4:00,1562,109,1.4,12.5,0.51,851,0,,,12.5,9.6,南投縣,13,仁愛鄉,122,2021/12/17 4:00,2021/12/17
23.538014,120.1612,23.53626667,120.1693111,宜梧,C0K291,2021/12/17 15:00,8,3,9.4,20.1,0.71,1015,0,20.5,2,22.4,20,雲林縣,16,口湖鄉,201,2021/12/17 15:00,2021/12/17
23.854225,120.312789,23.85248056,120.3209222,大城,C0G740,2021/12/17 1:00,24,16,1.7,20.7,0.89,1014.8,0,,,20.8,20.7,彰化縣,14,大城鄉,169,2021/12/17 1:00,2021/12/17
24.578356,121.487153,24.57653333,121.4953333,土場,C0UA00,2021/12/17 2:00,392,265,0.7,18,0.88,974,0,,,18.7,17.4,宜蘭縣,7,大同鄉,81,2021/12/17 2:00,2021/12/17
23.495833,120.691111,23.49390278,120.6992528,奮起湖,C0M530,2021/12/17 12:00,1385,223,0.6,20,0.62,870.8,0,,,20.5,12.3,嘉義縣,17,竹崎鄉,215,2021/12/17 12:00,2021/12/17
23.298339,120.377492,23.29658056,120.3855917,東河,C0X050,2021/12/17 15:00,25,12,6.3,23.5,0.58,1011.1,0,,,26.2,17.6,臺南市,4,東山區,236,2021/12/17 15:00,2021/12/17
23.574658,120.237839,23.57291111,120.2459556,水林,C0K510,2021/12/17 4:00,10,12,2.3,19.4,0.91,1014.1,0,,,20.2,19.4,雲林縣,16,水林鄉,204,2021/12/17 4:00,2021/12/17
23.081611,120.486944,23.07956111,120.4950083,北寮,C0O830,2021/12/17 3:00,127,244,0.3,17,0.99,1001.3,0,,,18.3,16.5,臺南市,4,南化區,244,2021/12/17 3:00,2021/12/17
23.740156,121.531975,23.73835,121.5401083,蕃薯寮,C0Z270,2021/12/17 9:00,343,45,2.5,20.4,0.8,981.5,0,,,20.4,17.7,花蓮縣,21,壽豐鄉,161,2021/12/17 9:00,2021/12/17
25.111389,121.461389,25.10950833,121.4696806,社子,C0A980,2021/12/17 14:00,11,338,3.5,17.4,0.75,1021.1,0,,,20.1,17.3,臺北市,1,士林區,7,2021/12/17 14:00,2021/12/17
22.203367,120.697225,22.20156944,120.70525,獅子,C0R740,2021/12/17 5:00,58,103,3.7,22.9,0.71,1009.1,0,,,22.9,21.2,屏東縣,20,獅子鄉,344,2021/12/17 5:00,2021/12/17
24.032075,120.541314,24.03032222,120.5494611,花壇,C0G910,2021/12/17 9:00,42,3,4.9,22.6,0.76,1011.4,0,12.2,350,22.6,19.6,彰化縣,14,花壇鄉,146,2021/12/17 9:00,2021/12/17
24.964408,121.880658,24.96260556,121.888875,桃源谷,C0UA70,2021/12/17 7:00,547,17,3.8,15.7,0.99,958.3,3.5,11.4,8,17,15.5,宜蘭縣,7,頭城鎮,51,2021/12/17 7:00,2021/12/17
23.897056,121.541694,23.89525,121.5498333,東華,C0Z100,2021/12/17 3:00,36,0,0,16.7,0.99,1013.7,0,,,17.2,16.3,花蓮縣,21,壽豐鄉,161,2021/12/17 3:00,2021/12/17
24.669917,121.644819,24.66812222,121.6530167,三星,C0U890,2021/12/17 4:00,116,260,2.1,18.3,0.91,1006.3,0,,,19.9,18.3,宜蘭縣,7,三星鄉,84,2021/12/17 4:00,2021/12/17
22.956258,121.221844,22.95445278,121.2299222,七塊厝,C0S950,2021/12/17 1:00,415,225,2.4,17.3,0.99,969,0,,,18,17.1,臺東縣,22,東河鄉,264,2021/12/17 1:00,2021/12/17
25.130833,121.915278,25.12903611,121.9233722,鼻頭角,C0A950,2021/12/17 10:00,60,354,11.9,-99,-99,1013.9,0,,,-99,-99,新北市,6,瑞芳區,18,2021/12/17 10:00,2021/12/17
22.856639,120.251361,22.85499722,120.2594389,路竹,C0V750,2021/12/17 0:00,50,31,1.7,21.2,0.78,1010.5,0,,,27.2,18.2,高雄市,5,路竹區,288,2021/12/17 0:00,2021/12/17
24.608056,120.775556,24.60648889,120.7839333,後龍,C0E540,2021/12/17 6:00,32,33,4.7,20.6,0.85,1015.7,0,,,20.9,20.3,苗栗縣,11,後龍鎮,91,2021/12/17 6:00,2021/12/17
23.390872,120.708528,23.389125,120.7166472,里佳,C0M810,2021/12/17 12:00,1354,354,0.9,19.4,0.65,868.3,0,,,19.7,13.4,嘉義縣,17,阿里山鄉,208,2021/12/17 12:00,2021/12/17
23.812778,120.609028,23.81074167,120.6173,二水,C0G880,2021/12/17 5:00,92,322,2.1,19.3,1,1006.3,0,,,19.6,18.7,彰化縣,14,二水鄉,177,2021/12/17 5:00,2021/12/17
22.586642,120.535392,22.58486111,120.5434417,竹田,C0R650,2021/12/17 12:00,29,240,1.8,25.7,0.72,1012.1,0,,,25.7,17.5,屏東縣,20,竹田鄉,322,2021/12/17 12:00,2021/12/17
23.564311,119.460328,23.5626,119.4684361,西嶼,C0W120,2021/12/17 14:00,58,16,17,19.5,0.78,1010.6,0,24.3,17,21.6,19.4,澎湖縣,23,西嶼鄉,200,2021/12/17 14:00,2021/12/17
23.387811,120.469225,23.38604722,120.4773306,鹿寮,C0X300,2021/12/17 8:00,70,0,0,18.2,0.93,1008.8,0,,,19.1,16.8,臺南市,4,白河區,228,2021/12/17 8:00,2021/12/17
23.274339,120.239506,23.27260278,120.2476222,鹽水,C0X230,2021/12/17 14:00,29,359,6,23,0.63,1013.1,0,,,24.4,17.8,臺南市,4,鹽水區,234,2021/12/17 14:00,2021/12/17
22.469778,120.574833,22.46794722,120.5828944,新埤,C0R550,2021/12/17 11:00,38,309,1.5,25.2,0.83,1011.8,0,,,25.6,17.3,屏東縣,20,新埤鄉,336,2021/12/17 11:00,2021/12/17
23.25,120.978056,23.24839722,120.9861333,向陽,C0S750,2021/12/17 15:00,2280,0,0.1,9.2,0.98,774.4,0,,,15.3,5.3,臺東縣,22,海端鄉,240,2021/12/17 15:00,2021/12/17
22.291944,120.881944,22.279725,120.8892083,南田,C0S840,2021/12/17 13:00,22,0,0,26.2,0.69,1015.9,0,,,26.8,19.2,臺東縣,22,達仁鄉,337,2021/12/17 13:00,2021/12/17
24.023903,121.124056,24.02212222,121.1322056,仁愛,C0I390,2021/12/17 3:00,1184,100,2.7,10.5,0.95,889.3,0,,,11.9,10.5,南投縣,13,仁愛鄉,122,2021/12/17 3:00,2021/12/17
23.023139,120.339806,23.021375,120.3478778,虎頭埤,C0O970,2021/12/17 12:00,71,341,1.5,26.6,0.63,1007.6,0,,,26.6,17.1,臺南市,4,新化區,267,2021/12/17 12:00,2021/12/17
22.676689,120.27685,22.67491111,120.2849111,左營,C0V810,2021/12/17 9:00,32,316,2.2,20.5,0.85,1012.7,0,,,21.7,19.4,高雄市,5,左營區,311,2021/12/17 9:00,2021/12/17
23.270336,121.297364,23.26852778,121.3054694,東里,C0Z300,2021/12/17 11:00,182,18,3,22.7,0.74,999.4,0,,,22.7,15.1,花蓮縣,21,富里鄉,241,2021/12/17 11:00,2021/12/17
24.039567,120.846925,24.03780278,120.8550722,國姓,C0I420,2021/12/17 7:00,305,13,0.3,14.7,0.95,982.9,0,,,18.2,14.7,南投縣,13,國姓鄉,139,2021/12/17 7:00,2021/12/17
24.149236,121.621542,24.14743333,121.6297028,富世,C0Z190,2021/12/17 8:00,62,316,2.6,20.6,0.58,1012.3,0,,,22,18.3,花蓮縣,21,秀林鄉,108,2021/12/17 8:00,2021/12/17
22.856639,120.251361,22.85499722,120.2594389,路竹,C0V750,2021/12/17 2:00,50,12,3,19.7,0.95,1010.3,0,,,21.2,19.6,高雄市,5,路竹區,288,2021/12/17 2:00,2021/12/17
24.453056,120.921944,24.45127222,120.9301917,馬都安,C0E610,2021/12/17 2:00,850,0,0,14.5,0.8,923.2,0,,,16.7,14.5,苗栗縣,11,泰安鄉,101,2021/12/17 2:00,2021/12/17
23.838817,120.693306,23.83705278,120.7014472,名間,C0I410,2021/12/17 0:00,180,346,1,19.1,0.82,996.2,0,,,27.1,15.7,南投縣,13,名間鄉,173,2021/12/17 0:00,2021/12/17
22.421194,120.544222,22.41945556,120.552375,佳冬,C0R540,2021/12/17 11:00,17,282,2.5,24.2,0.74,1013.3,0,,,24.2,18.1,屏東縣,20,佳冬鄉,341,2021/12/17 11:00,2021/12/17
22.828222,120.592722,22.82638889,120.6008056,高樹,C0R470,2021/12/17 3:00,103,257,0.6,18.7,0.86,1004.6,0,,,19.7,18.7,屏東縣,20,高樹鄉,290,2021/12/17 3:00,2021/12/17
24.894394,121.737519,24.8926,121.7457361,四堵,C0A540,2021/12/17 14:00,401,0,0,14.7,1,974.5,4,,,17.4,14.7,新北市,6,坪林區,53,2021/12/17 14:00,2021/12/17
24.217056,120.616239,24.21528056,120.62445,大雅(中科園區),C0F9X0,2021/12/17 3:00,166,25,4.5,19.1,0.87,997.1,0,,,19.1,18.6,臺中市,2,大雅區,121,2021/12/17 3:00,2021/12/17
22.123631,120.828758,22.121825,120.8367806,高士,C0R830,2021/12/17 13:00,383,52,8.5,21.3,0.86,971.7,0,15.9,49,22,19,屏東縣,20,牡丹鄉,347,2021/12/17 13:00,2021/12/17
23.127833,120.452472,23.12604167,120.46055,玉井,C0O930,2021/12/17 15:00,69,334,0.9,24.8,0.6,1006.7,0,,,28,16.2,臺南市,4,玉井區,254,2021/12/17 15:00,2021/12/17
23.292536,121.340419,23.29072778,121.3485278,安通山,C0Z330,2021/12/17 13:00,488,15,2.5,19.8,0.79,963.3,0,,,21.1,15.3,花蓮縣,21,玉里鎮,221,2021/12/17 13:00,2021/12/17
23.932733,121.587003,23.930925,121.5951528,吉安光華,C0Z150,2021/12/17 8:00,27,0,0,19.3,0.82,1017.4,0,,,19.3,17.6,花蓮縣,21,吉安鄉,154,2021/12/17 8:00,2021/12/17
24.453056,120.921944,24.45127222,120.9301917,馬都安,C0E610,2021/12/17 9:00,850,0,0.2,15.2,0.87,923.9,0,,,16.7,13.2,苗栗縣,11,泰安鄉,101,2021/12/17 9:00,2021/12/17
23.948333,120.577528,23.94650278,120.5855972,員林,C0G650,2021/12/17 11:00,34,21,1.9,24.6,0.59,1013.2,0,,,24.6,18.5,彰化縣,14,員林市,156,2021/12/17 11:00,2021/12/17
24.562447,121.744417,24.56064722,121.7526083,西德山,C0UA40,2021/12/17 3:00,1121,40,1.9,13.7,0.99,893.8,0,,,14.7,13.7,宜蘭縣,7,南澳鄉,93,2021/12/17 3:00,2021/12/17
24.74865,120.897256,24.74689167,120.9054556,香山,C0D570,2021/12/17 11:00,15,50,1.5,19.3,0.71,1019.5,0,8.3,15,20.8,19.2,新竹市,15,香山區,69,2021/12/17 11:00,2021/12/17
24.3704,121.365011,24.36861389,121.3731889,多加屯,C0UA20,2021/12/17 13:00,2619,334,0.5,6.9,0.99,738.6,0,,,8.6,5.1,宜蘭縣,7,大同鄉,81,2021/12/17 13:00,2021/12/17
25.1932,121.775678,25.19140833,121.7839139,基隆嶼,C0B020,2021/12/17 9:00,86,357,12.1,17.9,0.88,1010.3,0,17.8,2,20.2,17.8,基隆市,3,中正區,11,2021/12/17 9:00,2021/12/17
23.95175,120.471056,23.94835,120.4791222,溪湖,C0G660,2021/12/17 4:00,27,24,0.7,18.8,1,1012.8,0,,,20.1,18.8,彰化縣,14,溪湖鎮,157,2021/12/17 4:00,2021/12/17
24.899333,121.784231,24.89753611,121.7924444,鶯子嶺,C0U950,2021/12/17 5:00,1012,334,2.5,14.1,1,906.5,0.5,,,14.4,13.8,宜蘭縣,7,頭城鎮,51,2021/12/17 5:00,2021/12/17
22.711667,120.631889,22.70988889,120.6399444,三地門,C0R150,2021/12/17 15:00,105,184,1.5,27.5,0.55,1000.6,0,,,28.3,16.6,屏東縣,20,內埔鄉,310,2021/12/17 15:00,2021/12/17
23.718408,120.183736,23.71666667,120.1916861,水試所臺西,CM0120,2021/12/17 7:00,4,25,7.7,21,0.78,1017,0,13.6,37,21.7,20.9,雲林縣,16,臺西鄉,187,2021/12/17 7:00,2021/12/17
22.487694,120.494694,22.48591111,120.5027361,南州,C0R580,2021/12/17 0:00,10,26,0.7,20.7,0.91,1015.3,0,,,27.6,18.1,屏東縣,20,南州鄉,338,2021/12/17 0:00,2021/12/17
22.596589,120.952772,22.59478889,120.960825,金峰嘉蘭,C0S920,2021/12/17 15:00,98,155,1.6,22.8,0.74,1000.4,0,8.1,162,26.1,16.9,臺東縣,22,金峰鄉,352,2021/12/17 15:00,2021/12/17
24.349917,120.632361,24.34766667,120.6404028,大甲,C0F930,2021/12/17 9:00,100,44,0.9,19.6,0.75,1006.2,0,,,19.6,18.5,臺中市,2,大甲區,105,2021/12/17 9:00,2021/12/17
23.77455,120.400811,23.77279722,120.4089444,二崙,C0K440,2021/12/17 4:00,35,13,3.5,18.6,0.92,1012.3,0,,,19.9,18.6,雲林縣,16,二崙鄉,180,2021/12/17 4:00,2021/12/17
24.979428,121.248156,24.97766111,121.256375,中壢,C0C700,2021/12/17 14:00,151,49,3.8,15.9,0.79,1004.3,0,11.2,41,19.7,15.9,桃園市,8,中壢區,43,2021/12/17 14:00,2021/12/17
24.899444,121.206389,24.89750278,121.2146361,平鎮,C0C650,2021/12/17 13:00,208,27,6.3,15.5,0.85,996.8,0,,,19.1,15.5,桃園市,8,平鎮區,55,2021/12/17 13:00,2021/12/17
22.907694,120.68,22.90594444,120.6880556,萬山,C0V790,2021/12/17 6:00,410,27,2.3,16.6,0.82,968.7,0,,,18.2,16.6,高雄市,5,茂林區,278,2021/12/17 6:00,2021/12/17
24.039567,120.846925,24.03780278,120.8550722,國姓,C0I420,2021/12/17 14:00,305,219,3.2,25.1,0.55,979.2,0,,,26,14.5,南投縣,13,國姓鄉,139,2021/12/17 14:00,2021/12/17
22.994972,120.144111,22.99316111,120.1521806,安平,C0X190,2021/12/17 14:00,10,357,4.2,23.5,0.66,1013.3,0,9.5,8,25,19.4,臺南市,4,安平區,276,2021/12/17 14:00,2021/12/17
23.975444,120.672194,23.97367222,120.68085,草屯,C0H960,2021/12/17 9:00,120,16,1.8,21.2,0.81,1002.4,0,,,21.2,17.6,南投縣,13,草屯鎮,152,2021/12/17 9:00,2021/12/17
23.651544,120.306892,23.64979722,120.3150111,元長,C0K500,2021/12/17 10:00,12,16,4.8,22.8,0.65,1014.8,0,11.2,12,22.8,18.9,雲林縣,16,元長鄉,197,2021/12/17 10:00,2021/12/17
23.494642,121.298764,23.49284167,121.3068833,瑞穗林道,C0Z250,2021/12/17 10:00,1124,115,0.4,16.7,0.87,896,0,,,16.8,11.5,花蓮縣,21,卓溪鄉,207,2021/12/17 10:00,2021/12/17
24.275269,120.939447,24.27350278,120.9476167,烏石坑,C0FA00,2021/12/17 10:00,983,118,0.7,18.3,0.53,908.9,0,,,18.3,13.8,臺中市,2,和平區,104,2021/12/17 10:00,2021/12/17
23.848356,120.374339,23.84661111,120.3824611,竹塘,C0G750,2021/12/17 7:00,31,358,3.2,19.7,0.85,1014.9,0,,,20.1,19.1,彰化縣,14,竹塘鄉,172,2021/12/17 7:00,2021/12/17
23.370733,121.374825,23.36892778,121.3829306,赤柯山,C0Z290,2021/12/17 7:00,946,33,1.5,14.5,0.99,914.6,0,,,14.9,14,花蓮縣,21,玉里鎮,221,2021/12/17 7:00,2021/12/17
24.792836,121.666839,24.79104167,121.6750472,大礁溪,C0U870,2021/12/17 2:00,474,310,1,18.3,0.95,964.6,0,,,18.3,17.4,宜蘭縣,7,礁溪鄉,65,2021/12/17 2:00,2021/12/17
23.899417,120.578083,23.89764722,120.5862,社頭,C0G860,2021/12/17 6:00,45,334,1.9,19,0.88,1010.8,0,,,19.9,18.3,彰化縣,14,社頭鄉,163,2021/12/17 6:00,2021/12/17
23.813667,121.433194,23.8119,121.4414583,西林,C0T900,2021/12/17 0:00,160,280,0.7,17.9,0.67,996.9,0,,,26.3,15.3,花蓮縣,21,萬榮鄉,166,2021/12/17 0:00,2021/12/17
23.077444,120.355194,23.0757,120.3632528,山上,C0X180,2021/12/17 11:00,62,331,0.9,23.7,0.74,1008.4,0,,,23.8,17.7,臺南市,4,山上區,260,2021/12/17 11:00,2021/12/17
23.058528,120.400444,23.05675833,120.4085222,左鎮,C0X200,2021/12/17 15:00,61,317,4,24.2,0.54,1007.2,0,,,26.4,17.4,臺南市,4,左鎮區,266,2021/12/17 15:00,2021/12/17
23.882433,121.573839,23.88062778,121.5819806,大坑,C0T9E0,2021/12/17 12:00,415,27,2.8,18.4,0.89,972,0,,,18.8,16,花蓮縣,21,壽豐鄉,161,2021/12/17 12:00,2021/12/17
23.812778,120.609028,23.81074167,120.6173,二水,C0G880,2021/12/17 14:00,92,331,3.4,24.3,0.6,1005.6,0,,,25.4,18.7,彰化縣,14,二水鄉,177,2021/12/17 14:00,2021/12/17
22.762444,120.25925,22.76055833,120.2672111,梓官,C0V610,2021/12/17 0:00,22,356,1.4,21.3,0.84,1013.1,0,,,25.2,17,高雄市,5,梓官區,303,2021/12/17 0:00,2021/12/17
23.149036,120.078164,23.14728889,120.0862528,七股,C0X310,2021/12/17 9:00,9,25,6.9,21.5,0.95,1017.3,0,,,21.5,19.6,臺南市,4,七股區,253,2021/12/17 9:00,2021/12/17
23.413075,120.300231,23.41132222,120.3083333,鹿草,C0M780,2021/12/17 11:00,30,2,2.6,24.2,0.65,1014.2,0,,,24.2,18.2,嘉義縣,17,鹿草鄉,226,2021/12/17 11:00,2021/12/17
23.326389,120.573611,23.32436111,120.5820167,馬頭山,C0M410,2021/12/17 1:00,245,351,0.9,16.7,0.95,983.7,0,,,16.9,16.7,嘉義縣,17,大埔鄉,233,2021/12/17 1:00,2021/12/17
23.692672,120.295503,23.69092778,120.3036194,褒忠,C0K430,2021/12/17 10:00,30,4,5.2,22.5,0.7,1014.8,0,12.2,25,22.5,19.1,雲林縣,16,褒忠鄉,191,2021/12/17 10:00,2021/12/17
